{"type": "FeatureCollection", "name": "korea_sensors", "features": [{"type": "Feature", "properties": {"fid": 6998, "ID": 13569, "Name": "Goseong(DMZ), Seoul, South Korea (\uace0\uc131(DMZ) \uac15\uc6d0)", "Lat": 38.566511, "Lon": 128.280252, "AQI": 104.0, "Last_Updated": "2026-03-10T01:00:00+09:00"}, "geometry": {"type": "Point", "coordinates": [128.280252, 38.566511]}}, {"type": "Feature", "properties": {"fid": 6620, "ID": 4544, "Name": "Baekryeongdo, Incheon, South Korea (\ubc31\ub839\ub3c4 \uc778\ucc9c)", "Lat": 37.938413, "Lon": 124.645669, "AQI": 57.0, "Last_Updated": "2026-03-10T01:00:00+09:00"}, "geometry": {"type": "Point", "coordinates": [124.645669, 37.938413]}}, {"type": "Feature", "properties": {"fid": 6352, "ID": 11894, "Name": "Gangjin-eup, Jeonnam, South Korea (\uac15\uc9c4\uc74d \uc804\ub0a8)", "Lat": 34.6446579, "Lon": 126.7711918, "AQI": 68.0, "Last_Updated": "2026-03-10T01:00:00+09:00"}, "geometry": {"type": "Point", "coordinates": [126.771192, 34.644658]}}, {"type": "Feature", "properties": {"fid": 6374, "ID": 11515, "Name": "Jangheung-eup, Jeonnam, South Korea (\uc7a5\ud765\uc74d \uc804\ub0a8)", "Lat": 34.6743623, "Lon": 126.9065322, "AQI": 74.0, "Last_Updated": "2026-03-10T01:00:00+09:00"}, "geometry": {"type": "Point", "coordinates": [126.906532, 34.674362]}}, {"type": "Feature", "properties": {"fid": 6331, "ID": 11516, "Name": "Sinangun, Jeonnam, South Korea (\uc2e0\uc548\uad70 \uc804\ub0a8)", "Lat": 34.7555612, "Lon": 126.1260116, "AQI": 42.0, "Last_Updated": "2026-03-10T00:00:00+09:00"}, "geometry": {"type": "Point", "coordinates": [126.126012, 34.755561]}}, {"type": "Feature", "properties": {"fid": 6370, "ID": 13999, "Name": "Boseong-eup, Jeonnam, South Korea (\ubcf4\uc131\uc74d \uc804\ub0a8)", "Lat": 34.76479, "Lon": 127.078068, "AQI": 89.0, "Last_Updated": "2026-03-10T01:00:00+09:00"}, "geometry": {"type": "Point", "coordinates": [127.078068, 34.76479]}}, {"type": "Feature", "properties": {"fid": 6334, "ID": 1793, "Name": "Nabul-ri, Yeongam-gun, Jeonnam, South Korea (\ub300\ubd88 \uc804\ub0a8)", "Lat": 34.766809, "Lon": 126.439193, "AQI": 87.0, "Last_Updated": "2026-03-10T01:00:00+09:00"}, "geometry": {"type": "Point", "coordinates": [126.439193, 34.766809]}}, {"type": "Feature", "properties": {"fid": 6335, "ID": 13566, "Name": "Mokpohang, Jeonnam, South Korea (\ubaa9\ud3ec\ud56d \uc804\ub0a8)", "Lat": 34.771956, "Lon": 126.391513, "AQI": 82.0, "Last_Updated": "2026-03-10T01:00:00+09:00"}, "geometry": {"type": "Point", "coordinates": [126.391513, 34.771956]}}, {"type": "Feature", "properties": {"fid": 6373, "ID": 1790, "Name": ", Mokpo-si, Jeonnam, South Korea (\ubd80\ud765\ub3d9 \uc804\ub0a8)", "Lat": 34.804279, "Lon": 126.43457, "AQI": 48.0, "Last_Updated": "2026-03-10T00:00:00+09:00"}, "geometry": {"type": "Point", "coordinates": [126.43457, 34.804279]}}, {"type": "Feature", "properties": {"fid": 6357, "ID": 4026, "Name": "Yongdang-dong, Mokpo-si, Jeonnam, South Korea (\uc6a9\ub2f9\ub3d9 \uc804\ub0a8)", "Lat": 34.80593, "Lon": 126.391767, "AQI": 55.0, "Last_Updated": "2026-03-10T01:00:00+09:00"}, "geometry": {"type": "Point", "coordinates": [126.391767, 34.80593]}}, {"type": "Feature", "properties": {"fid": 6387, "ID": 13243, "Name": "Yeongam-eup, Jeonnam, South Korea (\uc601\uc554\uc74d \uc804\ub0a8)", "Lat": 34.84, "Lon": 126.7, "AQI": 93.0, "Last_Updated": "2026-03-10T01:00:00+09:00"}, "geometry": {"type": "Point", "coordinates": [126.7, 34.84]}}, {"type": "Feature", "properties": {"fid": 6360, "ID": 11511, "Name": "Muan-eup, Jeonnam, South Korea (\ubb34\uc548\uc74d \uc804\ub0a8)", "Lat": 34.9903577, "Lon": 126.4762299, "AQI": 61.0, "Last_Updated": "2026-03-10T01:00:00+09:00"}, "geometry": {"type": "Point", "coordinates": [126.47623, 34.990358]}}, {"type": "Feature", "properties": {"fid": 6375, "ID": 10455, "Name": "Bitgaram-dong, Jeonnam, South Korea (\ube5b\uac00\ub78c\ub3d9 \uc804\ub0a8)", "Lat": 35.02174, "Lon": 126.790413, "AQI": 68.0, "Last_Updated": "2026-03-10T01:00:00+09:00"}, "geometry": {"type": "Point", "coordinates": [126.790413, 35.02174]}}, {"type": "Feature", "properties": {"fid": 6348, "ID": 11514, "Name": "Hampyeong-eup, Jeonnam, South Korea (\ud568\ud3c9\uc74d \uc804\ub0a8)", "Lat": 35.0619768, "Lon": 126.5225907, "AQI": 53.0, "Last_Updated": "2026-03-10T01:00:00+09:00"}, "geometry": {"type": "Point", "coordinates": [126.522591, 35.061977]}}, {"type": "Feature", "properties": {"fid": 6343, "ID": 12969, "Name": "Nodae-dong, Gwangju, South Korea (\ub178\ub300\ub3d9 \uad11\uc8fc)", "Lat": 35.1000281, "Lon": 126.8965634, "AQI": 99.0, "Last_Updated": "2026-03-10T01:00:00+09:00"}, "geometry": {"type": "Point", "coordinates": [126.896563, 35.100028]}}, {"type": "Feature", "properties": {"fid": 6333, "ID": 12970, "Name": "Pyeong-dong, Gwangju, South Korea (\ud3c9\ub3d9 \uad11\uc8fc)", "Lat": 35.12322, "Lon": 126.76867, "AQI": 91.0, "Last_Updated": "2026-03-10T01:00:00+09:00"}, "geometry": {"type": "Point", "coordinates": [126.76867, 35.12322]}}, {"type": "Feature", "properties": {"fid": 6342, "ID": 1795, "Name": "Juwol-dong, Nam-gu, Gwangju, South Korea (\uc8fc\uc6d4\ub3d9 \uad11\uc8fc)", "Lat": 35.131917, "Lon": 126.8933, "AQI": 89.0, "Last_Updated": "2026-03-10T01:00:00+09:00"}, "geometry": {"type": "Point", "coordinates": [126.8933, 35.131917]}}, {"type": "Feature", "properties": {"fid": 6378, "ID": 1796, "Name": "Seoseok-dong, Dong-gu, Gwangju, South Korea (\uc11c\uc11d\ub3d9 \uad11\uc8fc)", "Lat": 35.14583, "Lon": 126.92333, "AQI": 82.0, "Last_Updated": "2026-03-10T01:00:00+09:00"}, "geometry": {"type": "Point", "coordinates": [126.92333, 35.14583]}}, {"type": "Feature", "properties": {"fid": 6363, "ID": 4516, "Name": "Chipyeong-dong, Gwangju, South Korea (\uce58\ud3c9\ub3d9 \uad11\uc8fc)", "Lat": 35.151625, "Lon": 126.853292, "AQI": 78.0, "Last_Updated": "2026-03-10T01:00:00+09:00"}, "geometry": {"type": "Point", "coordinates": [126.853292, 35.151625]}}, {"type": "Feature", "properties": {"fid": 6379, "ID": 13526, "Name": "Usandong(Gwangju), Gwangju, South Korea (\uc6b0\uc0b0\ub3d9(\uad11\uc8fc) \uad11\uc8fc)", "Lat": 35.157742, "Lon": 126.810097, "AQI": 95.0, "Last_Updated": "2026-03-10T01:00:00+09:00"}, "geometry": {"type": "Point", "coordinates": [126.810097, 35.157742]}}, {"type": "Feature", "properties": {"fid": 6354, "ID": 13527, "Name": "Yuchon-dong, Gwangju, South Korea (\uc720\ucd0c\ub3d9 \uad11\uc8fc)", "Lat": 35.161944, "Lon": 126.844167, "AQI": 70.0, "Last_Updated": "2026-03-10T01:00:00+09:00"}, "geometry": {"type": "Point", "coordinates": [126.844167, 35.161944]}}, {"type": "Feature", "properties": {"fid": 6390, "ID": 1797, "Name": "Duam-dong, Buk-gu, Gwangju, South Korea (\ub450\uc554\ub3d9 \uad11\uc8fc)", "Lat": 35.1743, "Lon": 126.9325, "AQI": 99.0, "Last_Updated": "2026-03-10T01:00:00+09:00"}, "geometry": {"type": "Point", "coordinates": [126.9325, 35.1743]}}, {"type": "Feature", "properties": {"fid": 6397, "ID": 4517, "Name": "Unam-dong, Gwangju, South Korea (\uc6b4\uc554\ub3d9 \uad11\uc8fc)", "Lat": 35.176106, "Lon": 126.856931, "AQI": 91.0, "Last_Updated": "2026-03-10T01:00:00+09:00"}, "geometry": {"type": "Point", "coordinates": [126.856931, 35.176106]}}, {"type": "Feature", "properties": {"fid": 6402, "ID": 11510, "Name": "Hwasun-eup, Jeonnam, South Korea (\ud654\uc21c\uc74d \uc804\ub0a8)", "Lat": 35.0652356, "Lon": 126.9857882, "AQI": 46.0, "Last_Updated": "2026-03-10T01:00:00+09:00"}, "geometry": {"type": "Point", "coordinates": [126.985788, 35.065236]}}, {"type": "Feature", "properties": {"fid": 6404, "ID": 11517, "Name": "Jindo-eup, Jeonnam, South Korea (\uc9c4\ub3c4\uc74d \uc804\ub0a8)", "Lat": 34.4792914, "Lon": 126.2687164, "AQI": 48.0, "Last_Updated": "2026-03-10T00:00:00+09:00"}, "geometry": {"type": "Point", "coordinates": [126.268716, 34.479291]}}, {"type": "Feature", "properties": {"fid": 6405, "ID": 10467, "Name": "Haenam-eup, Jeonnam, South Korea (\ud574\ub0a8\uc74d \uc804\ub0a8)", "Lat": 34.565366, "Lon": 126.599224, "AQI": 78.0, "Last_Updated": "2026-03-10T01:00:00+09:00"}, "geometry": {"type": "Point", "coordinates": [126.599224, 34.565366]}}, {"type": "Feature", "properties": {"fid": 6410, "ID": 1798, "Name": "Nongseong-dong, Seo-gu, Gwangju, South Korea (\ub18d\uc131\ub3d9 \uad11\uc8fc)", "Lat": 35.156651, "Lon": 126.889699, "AQI": 97.0, "Last_Updated": "2026-03-10T01:00:00+09:00"}, "geometry": {"type": "Point", "coordinates": [126.889699, 35.156651]}}, {"type": "Feature", "properties": {"fid": 6406, "ID": 4518, "Name": "Songdan-ri, Jeonnam, South Korea (\uc1a1\ub2e8\ub9ac \uc804\ub0a8)", "Lat": 35.177167, "Lon": 127.175167, "AQI": 107.0, "Last_Updated": "2026-03-10T01:00:00+09:00"}, "geometry": {"type": "Point", "coordinates": [127.175167, 35.177167]}}, {"type": "Feature", "properties": {"fid": 6416, "ID": 4034, "Name": "Oseon-dong, Gwangsan-gu, Gwangju, South Korea (\uc624\uc120\ub3d9 \uad11\uc8fc)", "Lat": 35.20413, "Lon": 126.8072, "AQI": 82.0, "Last_Updated": "2026-03-10T01:00:00+09:00"}, "geometry": {"type": "Point", "coordinates": [126.8072, 35.20413]}}, {"type": "Feature", "properties": {"fid": 6355, "ID": 13525, "Name": "Ilgok-dong, Gwangju, South Korea (\uc77c\uace1\ub3d9 \uad11\uc8fc)", "Lat": 35.218056, "Lon": 126.8925, "AQI": 85.0, "Last_Updated": "2026-03-10T01:00:00+09:00"}, "geometry": {"type": "Point", "coordinates": [126.8925, 35.218056]}}, {"type": "Feature", "properties": {"fid": 6353, "ID": 4035, "Name": "Konkuk-dong, Buk-gu, Gwangju, South Korea (\uac74\uad6d\ub3d9 \uad11\uc8fc)", "Lat": 35.22933, "Lon": 126.86186, "AQI": 85.0, "Last_Updated": "2026-03-10T01:00:00+09:00"}, "geometry": {"type": "Point", "coordinates": [126.86186, 35.22933]}}, {"type": "Feature", "properties": {"fid": 6384, "ID": 11357, "Name": "Yeonggwang-eup, Jeonnam, South Korea (\uc601\uad11\uc74d \uc804\ub0a8)", "Lat": 35.2779955, "Lon": 126.5119937, "AQI": 34.0, "Last_Updated": "2026-03-10T00:00:00+09:00"}, "geometry": {"type": "Point", "coordinates": [126.511994, 35.277996]}}, {"type": "Feature", "properties": {"fid": 6372, "ID": 10454, "Name": "Jangseong-eup, Jeonnam, South Korea (\uc7a5\uc131\uc74d \uc804\ub0a8)", "Lat": 35.303241, "Lon": 126.785419, "AQI": 80.0, "Last_Updated": "2026-03-10T01:00:00+09:00"}, "geometry": {"type": "Point", "coordinates": [126.785419, 35.303241]}}, {"type": "Feature", "properties": {"fid": 6371, "ID": 10453, "Name": "Damyang-eup, Jeonnam, South Korea (\ub2f4\uc591\uc74d \uc804\ub0a8)", "Lat": 35.311711, "Lon": 126.972914, "AQI": 72.0, "Last_Updated": "2026-03-10T01:00:00+09:00"}, "geometry": {"type": "Point", "coordinates": [126.972914, 35.311711]}}, {"type": "Feature", "properties": {"fid": 6367, "ID": 11348, "Name": "Sunchang-eup, Jeonbuk, South Korea (\uc21c\ucc3d\uc74d \uc804\ubd81)", "Lat": 35.3744761, "Lon": 127.1373331, "AQI": 91.0, "Last_Updated": "2026-03-10T01:00:00+09:00"}, "geometry": {"type": "Point", "coordinates": [127.137333, 35.374476]}}, {"type": "Feature", "properties": {"fid": 6391, "ID": 1799, "Name": "Gochang-gun, Jeonbuk, South Korea (\uace0\ucc3d\uc74d \uc804\ubd81)", "Lat": 35.438094, "Lon": 126.71279, "AQI": 68.0, "Last_Updated": "2026-03-10T01:00:00+09:00"}, "geometry": {"type": "Point", "coordinates": [126.71279, 35.438094]}}, {"type": "Feature", "properties": {"fid": 6365, "ID": 11365, "Name": "Simwon-myeon, Jeonbuk, South Korea (\uc2ec\uc6d0\uba74 \uc804\ubd81)", "Lat": 35.5241766, "Lon": 126.5508918, "AQI": 42.0, "Last_Updated": "2026-03-10T01:00:00+09:00"}, "geometry": {"type": "Point", "coordinates": [126.550892, 35.524177]}}, {"type": "Feature", "properties": {"fid": 6398, "ID": 1804, "Name": "Yeonji-dong, Jeongeup-si, Jeonbuk, South Korea (\uc5f0\uc9c0\ub3d9 \uc804\ubd81)", "Lat": 35.568445, "Lon": 126.845886, "AQI": 93.0, "Last_Updated": "2026-03-10T01:00:00+09:00"}, "geometry": {"type": "Point", "coordinates": [126.845886, 35.568445]}}, {"type": "Feature", "properties": {"fid": 6380, "ID": 13970, "Name": "Yeongpa-dong, Jeonbuk, South Korea (\uc601\ud30c\ub3d9 \uc804\ubd81)", "Lat": 35.608889, "Lon": 126.852778, "AQI": 80.0, "Last_Updated": "2026-03-10T01:00:00+09:00"}, "geometry": {"type": "Point", "coordinates": [126.852778, 35.608889]}}, {"type": "Feature", "properties": {"fid": 6417, "ID": 4537, "Name": "Unam-myeon, Jeonbuk, South Korea (\uc6b4\uc554\uba74 \uc804\ubd81)", "Lat": 35.610533, "Lon": 127.186217, "AQI": 104.0, "Last_Updated": "2026-03-10T01:00:00+09:00"}, "geometry": {"type": "Point", "coordinates": [127.186217, 35.610533]}}, {"type": "Feature", "properties": {"fid": 6407, "ID": 11338, "Name": "Sintaein, Jeonbuk, South Korea (\uc2e0\ud0dc\uc778 \uc804\ubd81)", "Lat": 35.688012, "Lon": 126.886775, "AQI": 89.0, "Last_Updated": "2026-03-10T01:00:00+09:00"}, "geometry": {"type": "Point", "coordinates": [126.886775, 35.688012]}}, {"type": "Feature", "properties": {"fid": 6399, "ID": 8501, "Name": "Buangun, Jeonbuk, South Korea (\ubd80\uc548\uc74d \uc804\ubd81)", "Lat": 35.724299, "Lon": 126.734415, "AQI": 72.0, "Last_Updated": "2026-03-10T01:00:00+09:00"}, "geometry": {"type": "Point", "coordinates": [126.734415, 35.724299]}}, {"type": "Feature", "properties": {"fid": 6411, "ID": 13557, "Name": "Gui-myeon, Jeonbuk, South Korea (\uad6c\uc774\uba74 \uc804\ubd81)", "Lat": 35.728611, "Lon": 127.136111, "AQI": 107.0, "Last_Updated": "2026-03-10T01:00:00+09:00"}, "geometry": {"type": "Point", "coordinates": [127.136111, 35.728611]}}, {"type": "Feature", "properties": {"fid": 6376, "ID": 13560, "Name": "Gyehwa-myeon, Jeonbuk, South Korea (\uacc4\ud654\uba74 \uc804\ubd81)", "Lat": 35.761674, "Lon": 126.698103, "AQI": 72.0, "Last_Updated": "2026-03-10T01:00:00+09:00"}, "geometry": {"type": "Point", "coordinates": [126.698103, 35.761674]}}, {"type": "Feature", "properties": {"fid": 6321, "ID": 1803, "Name": "Samcheon-dong, Jeonju-si, Jeonbuk, South Korea (\uc0bc\ucc9c\ub3d9 \uc804\ubd81)", "Lat": 35.798946, "Lon": 127.121698, "AQI": 117.0, "Last_Updated": "2026-03-10T01:00:00+09:00"}, "geometry": {"type": "Point", "coordinates": [127.121698, 35.798946]}}, {"type": "Feature", "properties": {"fid": 6323, "ID": 13966, "Name": "Hyoja-dong, Jeonbuk, South Korea (\ud6a8\uc790\ub3d9 \uc804\ubd81)", "Lat": 35.8009943, "Lon": 127.0933305, "AQI": 91.0, "Last_Updated": "2026-03-10T01:00:00+09:00"}, "geometry": {"type": "Point", "coordinates": [127.09333, 35.800994]}}, {"type": "Feature", "properties": {"fid": 6423, "ID": 9012, "Name": "Gimje-si, Jeonbuk, South Korea (\uc694\ucd0c\ub3d9 \uc804\ubd81)", "Lat": 35.80491, "Lon": 126.891416, "AQI": 91.0, "Last_Updated": "2026-03-10T01:00:00+09:00"}, "geometry": {"type": "Point", "coordinates": [126.891416, 35.80491]}}, {"type": "Feature", "properties": {"fid": 6414, "ID": 5533, "Name": "Jeonju (\uc804\uc8fc\uc2dc)", "Lat": 35.8242238, "Lon": 127.1479532, "AQI": 117.0, "Last_Updated": "2026-03-10T01:00:00+09:00"}, "geometry": {"type": "Point", "coordinates": [127.147953, 35.824224]}}, {"type": "Feature", "properties": {"fid": 6419, "ID": 4536, "Name": "Geumam-dong, Jeonbuk, South Korea (\uc11c\uc2e0\ub3d9 \uc804\ubd81)", "Lat": 35.833725, "Lon": 127.122751, "AQI": 97.0, "Last_Updated": "2026-03-10T01:00:00+09:00"}, "geometry": {"type": "Point", "coordinates": [127.122751, 35.833725]}}, {"type": "Feature", "properties": {"fid": 6364, "ID": 13965, "Name": "Gwanghwal-myeon, Jeonbuk, South Korea (\uad11\ud65c\uba74 \uc804\ubd81)", "Lat": 35.8357126, "Lon": 126.7404835, "AQI": 80.0, "Last_Updated": "2026-03-10T01:00:00+09:00"}, "geometry": {"type": "Point", "coordinates": [126.740483, 35.835713]}}, {"type": "Feature", "properties": {"fid": 6422, "ID": 13006, "Name": "Hyeoksin-dong, Jeonbuk, South Korea (\ud601\uc2e0\ub3d9 \uc804\ubd81)", "Lat": 35.846502, "Lon": 127.062725, "AQI": 89.0, "Last_Updated": "2026-03-10T01:00:00+09:00"}, "geometry": {"type": "Point", "coordinates": [127.062725, 35.846502]}}, {"type": "Feature", "properties": {"fid": 6383, "ID": 4040, "Name": "Palbok-dong, Jeonju-si, Jeonbuk, South Korea (\ud314\ubcf5\ub3d9 \uc804\ubd81)", "Lat": 35.851533, "Lon": 127.087, "AQI": 78.0, "Last_Updated": "2026-03-10T01:00:00+09:00"}, "geometry": {"type": "Point", "coordinates": [127.087, 35.851533]}}, {"type": "Feature", "properties": {"fid": 6381, "ID": 11337, "Name": "Songcheon-dong, Jeonbuk, South Korea (\uc1a1\ucc9c\ub3d9 \uc804\ubd81)", "Lat": 35.867398, "Lon": 127.117517, "AQI": 134.0, "Last_Updated": "2026-03-10T01:00:00+09:00"}, "geometry": {"type": "Point", "coordinates": [127.117517, 35.867398]}}, {"type": "Feature", "properties": {"fid": 6337, "ID": 13971, "Name": "Yeoui-dong, Jeonbuk, South Korea (\uc5ec\uc758\ub3d9 \uc804\ubd81)", "Lat": 35.869596, "Lon": 127.074632, "AQI": 82.0, "Last_Updated": "2026-03-10T01:00:00+09:00"}, "geometry": {"type": "Point", "coordinates": [127.074632, 35.869596]}}, {"type": "Feature", "properties": {"fid": 6643, "ID": 4531, "Name": "Pado-ri, Chungnam, South Korea (\ud30c\ub3c4\ub9ac \ucda9\ub0a8)", "Lat": 36.736316, "Lon": 126.132168, "AQI": 74.0, "Last_Updated": "2026-03-10T01:00:00+09:00"}, "geometry": {"type": "Point", "coordinates": [126.132168, 36.736316]}}, {"type": "Feature", "properties": {"fid": 6779, "ID": 9549, "Name": "Taeangun-eup, Chungnam, South Korea (\ud0dc\uc548\uc74d \ucda9\ub0a8)", "Lat": 36.746709, "Lon": 126.301512, "AQI": 55.0, "Last_Updated": "2026-03-10T01:00:00+09:00"}, "geometry": {"type": "Point", "coordinates": [126.301512, 36.746709]}}, {"type": "Feature", "properties": {"fid": 6786, "ID": 12946, "Name": "Seongyeon-myeon, Chungnam, South Korea (\uc131\uc5f0\uba74 \ucda9\ub0a8)", "Lat": 36.839, "Lon": 126.46087, "AQI": 68.0, "Last_Updated": "2026-03-10T01:00:00+09:00"}, "geometry": {"type": "Point", "coordinates": [126.46087, 36.839]}}, {"type": "Feature", "properties": {"fid": 6701, "ID": 9551, "Name": "Boryeong-si Daecheon-2dong, Chungnam, South Korea (\ub300\ucc9c2\ub3d9 \ucda9\ub0a8)", "Lat": 36.353251, "Lon": 126.589768, "AQI": 93.0, "Last_Updated": "2026-03-10T01:00:00+09:00"}, "geometry": {"type": "Point", "coordinates": [126.589768, 36.353251]}}, {"type": "Feature", "properties": {"fid": 6771, "ID": 10471, "Name": "Dangjinsicheongsa, Chungnam, South Korea (\ub2f9\uc9c4\uc2dc\uccad\uc0ac \ucda9\ub0a8)", "Lat": 36.889977, "Lon": 126.645799, "AQI": 89.0, "Last_Updated": "2026-03-10T01:00:00+09:00"}, "geometry": {"type": "Point", "coordinates": [126.645799, 36.889977]}}, {"type": "Feature", "properties": {"fid": 6762, "ID": 9552, "Name": "Hongseonggun-eup, Chungnam, South Korea (\ud64d\uc131\uc74d \ucda9\ub0a8)", "Lat": 36.597702, "Lon": 126.655133, "AQI": 82.0, "Last_Updated": "2026-03-10T01:00:00+09:00"}, "geometry": {"type": "Point", "coordinates": [126.655133, 36.597702]}}, {"type": "Feature", "properties": {"fid": 6667, "ID": 11495, "Name": "Naepo, Chungnam, South Korea (\ub0b4\ud3ec \ucda9\ub0a8)", "Lat": 36.6529558, "Lon": 126.6677018, "AQI": 87.0, "Last_Updated": "2026-03-10T01:00:00+09:00"}, "geometry": {"type": "Point", "coordinates": [126.667702, 36.652956]}}, {"type": "Feature", "properties": {"fid": 6668, "ID": 14017, "Name": "Sapgyo-eup, Chungnam, South Korea (\uc0bd\uad50\uc74d \ucda9\ub0a8)", "Lat": 36.688131, "Lon": 126.739314, "AQI": 102.0, "Last_Updated": "2026-03-10T01:00:00+09:00"}, "geometry": {"type": "Point", "coordinates": [126.739314, 36.688131]}}, {"type": "Feature", "properties": {"fid": 6648, "ID": 14022, "Name": "Bogun-ri, Chungnam, South Korea (\ubcf5\uc6b4\ub9ac \ucda9\ub0a8)", "Lat": 36.944347, "Lon": 126.783615, "AQI": 112.0, "Last_Updated": "2026-03-10T01:00:00+09:00"}, "geometry": {"type": "Point", "coordinates": [126.783615, 36.944347]}}, {"type": "Feature", "properties": {"fid": 6693, "ID": 9550, "Name": "Yesangun, Chungnam, South Korea (\uc608\uc0b0\uad70 \ucda9\ub0a8)", "Lat": 36.687115, "Lon": 126.832093, "AQI": 89.0, "Last_Updated": "2026-03-10T01:00:00+09:00"}, "geometry": {"type": "Point", "coordinates": [126.832093, 36.687115]}}, {"type": "Feature", "properties": {"fid": 6652, "ID": 3968, "Name": "Pyeongtaekhang, Pyeongtaek-si, Gyeonggi, South Korea (\ud3c9\ud0dd\ud56d \uacbd\uae30)", "Lat": 36.974605, "Lon": 126.84554, "AQI": 107.0, "Last_Updated": "2026-03-10T01:00:00+09:00"}, "geometry": {"type": "Point", "coordinates": [126.84554, 36.974605]}}, {"type": "Feature", "properties": {"fid": 6627, "ID": 10474, "Name": "Inju-myeon, Chungnam, South Korea (\uc778\uc8fc\uba74 \ucda9\ub0a8)", "Lat": 36.873396, "Lon": 126.87978, "AQI": null, "Last_Updated": "2026-03-09T12:00:00+09:00"}, "geometry": {"type": "Point", "coordinates": [126.87978, 36.873396]}}, {"type": "Feature", "properties": {"fid": 6626, "ID": 10472, "Name": "Dogo-myeon, Chungnam, South Korea (\ub3c4\uace0\uba74 \ucda9\ub0a8)", "Lat": 36.762488, "Lon": 126.888729, "AQI": 91.0, "Last_Updated": "2026-03-10T01:00:00+09:00"}, "geometry": {"type": "Point", "coordinates": [126.888729, 36.762488]}}, {"type": "Feature", "properties": {"fid": 6789, "ID": 12988, "Name": "Cheongbuk-eup, Gyeonggi, South Korea (\uccad\ubd81\uc74d \uacbd\uae30)", "Lat": 37.0204, "Lon": 126.9182, "AQI": 149.0, "Last_Updated": "2026-03-10T01:00:00+09:00"}, "geometry": {"type": "Point", "coordinates": [126.9182, 37.0204]}}, {"type": "Feature", "properties": {"fid": 6622, "ID": 3967, "Name": "Anjung, Pyeongtaek-si, Gyeonggi, South Korea (\uc548\uc911 \uacbd\uae30)", "Lat": 36.9859, "Lon": 126.9314, "AQI": 127.0, "Last_Updated": "2026-03-10T01:00:00+09:00"}, "geometry": {"type": "Point", "coordinates": [126.9314, 36.9859]}}, {"type": "Feature", "properties": {"fid": 6630, "ID": 13519, "Name": "Jeongsan-myeon, Chungnam, South Korea (\uc815\uc0b0\uba74 \ucda9\ub0a8)", "Lat": 36.41488, "Lon": 126.94505, "AQI": 109.0, "Last_Updated": "2026-03-10T01:00:00+09:00"}, "geometry": {"type": "Point", "coordinates": [126.94505, 36.41488]}}, {"type": "Feature", "properties": {"fid": 6800, "ID": 13521, "Name": "Pyeongtaekdangjinhang, Chungnam, South Korea (\ud3c9\ud0dd\ub2f9\uc9c4\ud56d \ucda9\ub0a8)", "Lat": 36.930248, "Lon": 126.806683, "AQI": 112.0, "Last_Updated": "2026-03-10T01:00:00+09:00"}, "geometry": {"type": "Point", "coordinates": [126.806683, 36.930248]}}, {"type": "Feature", "properties": {"fid": 6803, "ID": 9546, "Name": "Buyeo-gun Buyeo, Chungnam, South Korea (\ubd80\uc5ec\uc74d \ucda9\ub0a8)", "Lat": 36.275495, "Lon": 126.911297, "AQI": null, "Last_Updated": "2026-03-09T12:00:00+09:00"}, "geometry": {"type": "Point", "coordinates": [126.911297, 36.275495]}}, {"type": "Feature", "properties": {"fid": 6810, "ID": 1737, "Name": "Dokgot-ri, Seosan-si, Chungnam, South Korea (\ub3c5\uacf6\ub9ac \ucda9\ub0a8)", "Lat": 36.993588, "Lon": 126.358971, "AQI": 74.0, "Last_Updated": "2026-03-10T01:00:00+09:00"}, "geometry": {"type": "Point", "coordinates": [126.358971, 36.993588]}}, {"type": "Feature", "properties": {"fid": 6830, "ID": 9548, "Name": "Taeangun-myeon, Chungnam, South Korea (\uc774\uc6d0\uba74 \ucda9\ub0a8)", "Lat": 36.869739, "Lon": 126.280761, "AQI": 36.0, "Last_Updated": "2026-03-10T00:00:00+09:00"}, "geometry": {"type": "Point", "coordinates": [126.280761, 36.869739]}}, {"type": "Feature", "properties": {"fid": 6838, "ID": 11363, "Name": "Jugyo-myeon, Chungnam, South Korea (\uc8fc\uad50\uba74 \ucda9\ub0a8)", "Lat": 36.390845, "Lon": 126.569444, "AQI": 85.0, "Last_Updated": "2026-03-10T01:00:00+09:00"}, "geometry": {"type": "Point", "coordinates": [126.569444, 36.390845]}}, {"type": "Feature", "properties": {"fid": 6866, "ID": 10456, "Name": "Cheongyang-eup, Chungnam, South Korea (\uccad\uc591\uc74d \ucda9\ub0a8)", "Lat": 36.455152, "Lon": 126.804931, "AQI": 95.0, "Last_Updated": "2026-03-10T01:00:00+09:00"}, "geometry": {"type": "Point", "coordinates": [126.804931, 36.455152]}}, {"type": "Feature", "properties": {"fid": 6871, "ID": 14014, "Name": "Wonbuk-myeon, Chungnam, South Korea (\uc6d0\ubd81\uba74 \ucda9\ub0a8)", "Lat": 36.824238, "Lon": 126.25722, "AQI": 61.0, "Last_Updated": "2026-03-10T01:00:00+09:00"}, "geometry": {"type": "Point", "coordinates": [126.25722, 36.824238]}}, {"type": "Feature", "properties": {"fid": 6873, "ID": 10470, "Name": "Songsan-myeon, Chungnam, South Korea (\uc1a1\uc0b0\uba74 \ucda9\ub0a8)", "Lat": 36.976453, "Lon": 126.716298, "AQI": 109.0, "Last_Updated": "2026-03-10T01:00:00+09:00"}, "geometry": {"type": "Point", "coordinates": [126.716298, 36.976453]}}, {"type": "Feature", "properties": {"fid": 6877, "ID": 11334, "Name": "Daesan-ri, Chungnam, South Korea (\ub300\uc0b0\ub9ac \ucda9\ub0a8)", "Lat": 36.937966, "Lon": 126.43394, "AQI": 78.0, "Last_Updated": "2026-03-10T01:00:00+09:00"}, "geometry": {"type": "Point", "coordinates": [126.43394, 36.937966]}}, {"type": "Feature", "properties": {"fid": 6889, "ID": 14023, "Name": "Hapdeok-eup, Chungnam, South Korea (\ud569\ub355\uc74d \ucda9\ub0a8)", "Lat": 36.790498, "Lon": 126.785915, "AQI": 82.0, "Last_Updated": "2026-03-10T01:00:00+09:00"}, "geometry": {"type": "Point", "coordinates": [126.785915, 36.790498]}}, {"type": "Feature", "properties": {"fid": 6894, "ID": 3980, "Name": "Dongmun-dong, Seosan-si, Chungnam, South Korea (\ub3d9\ubb38\ub3d9 \ucda9\ub0a8)", "Lat": 36.780177, "Lon": 126.455459, "AQI": 70.0, "Last_Updated": "2026-03-10T01:00:00+09:00"}, "geometry": {"type": "Point", "coordinates": [126.455459, 36.780177]}}, {"type": "Feature", "properties": {"fid": 6920, "ID": 14025, "Name": "Pyeongtaekdangjinhang(Dangjinhang), Chungnam, South Korea (\ud3c9\ud0dd\ub2f9\uc9c4\ud56d(\ub2f9\uc9c4\ud56d) \ucda9\ub0a8)", "Lat": 36.98556, "Lon": 126.746821, "AQI": 89.0, "Last_Updated": "2026-03-10T01:00:00+09:00"}, "geometry": {"type": "Point", "coordinates": [126.746821, 36.98556]}}, {"type": "Feature", "properties": {"fid": 6631, "ID": 11344, "Name": "Ujeong-eup, Gyeonggi, South Korea (\uc6b0\uc815\uc74d \uacbd\uae30)", "Lat": 37.0898105, "Lon": 126.8152695, "AQI": 97.0, "Last_Updated": "2026-03-10T01:00:00+09:00"}, "geometry": {"type": "Point", "coordinates": [126.81527, 37.08981]}}, {"type": "Feature", "properties": {"fid": 6737, "ID": 1721, "Name": "Hyangnam, Hwaseong-si, Gyeonggi, South Korea (\ud5a5\ub0a8\uc74d \uacbd\uae30)", "Lat": 37.132356, "Lon": 126.920186, "AQI": 134.0, "Last_Updated": "2026-03-10T01:00:00+09:00"}, "geometry": {"type": "Point", "coordinates": [126.920186, 37.132356]}}, {"type": "Feature", "properties": {"fid": 6624, "ID": 13244, "Name": "Seosin-myeon, Gyeonggi, South Korea (\uc11c\uc2e0\uba74 \uacbd\uae30)", "Lat": 37.166203, "Lon": 126.708965, "AQI": 102.0, "Last_Updated": "2026-03-10T01:00:00+09:00"}, "geometry": {"type": "Point", "coordinates": [126.708965, 37.166203]}}, {"type": "Feature", "properties": {"fid": 6845, "ID": 3970, "Name": "Namyang-dong, Hwaseong-si, Gyeonggi, South Korea (\ub0a8\uc591\uc74d \uacbd\uae30)", "Lat": 37.211479, "Lon": 126.824001, "AQI": 104.0, "Last_Updated": "2026-03-10T01:00:00+09:00"}, "geometry": {"type": "Point", "coordinates": [126.824001, 37.211479]}}, {"type": "Feature", "properties": {"fid": 6623, "ID": 13246, "Name": "Bongdam-eup, Gyeonggi, South Korea (\ubd09\ub2f4\uc74d \uacbd\uae30)", "Lat": 37.219282, "Lon": 126.949062, "AQI": 142.0, "Last_Updated": "2026-03-10T01:00:00+09:00"}, "geometry": {"type": "Point", "coordinates": [126.949062, 37.219282]}}, {"type": "Feature", "properties": {"fid": 6720, "ID": 3954, "Name": "Daebu-dong, Ansan-si, Gyeonggi, South Korea (\ub300\ubd80\ub3d9 \uacbd\uae30)", "Lat": 37.2437, "Lon": 126.5854, "AQI": 76.0, "Last_Updated": "2026-03-10T01:00:00+09:00"}, "geometry": {"type": "Point", "coordinates": [126.5854, 37.2437]}}, {"type": "Feature", "properties": {"fid": 6634, "ID": 3949, "Name": "Gosaek-dong, Suwon-si, Gyeonggi, South Korea (\uace0\uc0c9\ub3d9 \uacbd\uae30)", "Lat": 37.252226, "Lon": 126.976304, "AQI": 124.0, "Last_Updated": "2026-03-10T01:00:00+09:00"}, "geometry": {"type": "Point", "coordinates": [126.976304, 37.252226]}}, {"type": "Feature", "properties": {"fid": 6661, "ID": 13959, "Name": "Homaesil, Gyeonggi, South Korea (\ud638\ub9e4\uc2e4 \uacbd\uae30)", "Lat": 37.26894, "Lon": 126.93609, "AQI": 151.0, "Last_Updated": "2026-03-10T01:00:00+09:00"}, "geometry": {"type": "Point", "coordinates": [126.93609, 37.26894]}}, {"type": "Feature", "properties": {"fid": 6655, "ID": 12996, "Name": "Saesol-dong, Gyeonggi, South Korea (\uc0c8\uc194\ub3d9 \uacbd\uae30)", "Lat": 37.2814, "Lon": 126.8188, "AQI": 134.0, "Last_Updated": "2026-03-10T01:00:00+09:00"}, "geometry": {"type": "Point", "coordinates": [126.8188, 37.2814]}}, {"type": "Feature", "properties": {"fid": 6685, "ID": 3948, "Name": "Cheoncheon-dong, Suwon-si, Gyeonggi, South Korea (\ucc9c\ucc9c\ub3d9 \uacbd\uae30)", "Lat": 37.292756, "Lon": 126.975303, "AQI": 137.0, "Last_Updated": "2026-03-10T01:00:00+09:00"}, "geometry": {"type": "Point", "coordinates": [126.975303, 37.292756]}}, {"type": "Feature", "properties": {"fid": 6758, "ID": 3955, "Name": "Bono, Ansan-si, Gyeonggi, South Korea (\ubcf8\uc624\ub3d9 \uacbd\uae30)", "Lat": 37.296107, "Lon": 126.87234, "AQI": 134.0, "Last_Updated": "2026-03-10T01:00:00+09:00"}, "geometry": {"type": "Point", "coordinates": [126.87234, 37.296107]}}, {"type": "Feature", "properties": {"fid": 6682, "ID": 3957, "Name": "Wonsi-dong, Ansan-si, Gyeonggi, South Korea (\uc6d0\uc2dc\ub3d9 \uacbd\uae30)", "Lat": 37.305255, "Lon": 126.788503, "AQI": 142.0, "Last_Updated": "2026-03-10T01:00:00+09:00"}, "geometry": {"type": "Point", "coordinates": [126.788503, 37.305255]}}, {"type": "Feature", "properties": {"fid": 6653, "ID": 4503, "Name": "Jungangro1, Gyeonggi, South Korea (\uc911\uc559\ub300\ub85c(\uace0\uc794\ub3d9) \uacbd\uae30)", "Lat": 37.316703, "Lon": 126.82792, "AQI": 147.0, "Last_Updated": "2026-03-10T01:00:00+09:00"}, "geometry": {"type": "Point", "coordinates": [126.82792, 37.316703]}}, {"type": "Feature", "properties": {"fid": 6842, "ID": 5515, "Name": "Ansan (\uc548\uc0b0\uc2dc)", "Lat": 37.3218778, "Lon": 126.8308848, "AQI": 114.0, "Last_Updated": "2026-03-10T01:00:00+09:00"}, "geometry": {"type": "Point", "coordinates": [126.830885, 37.321878]}}, {"type": "Feature", "properties": {"fid": 6752, "ID": 1706, "Name": "Wongok, Ansan-si, Gyeonggi, South Korea (\uc6d0\uace1\ub3d9 \uacbd\uae30)", "Lat": 37.331632, "Lon": 126.801758, "AQI": 122.0, "Last_Updated": "2026-03-10T01:00:00+09:00"}, "geometry": {"type": "Point", "coordinates": [126.801758, 37.331632]}}, {"type": "Feature", "properties": {"fid": 6654, "ID": 3953, "Name": "Bugok-dong, Ansan-si, Gyeonggi, South Korea (\ubd80\uace1\ub3d91 \uacbd\uae30)", "Lat": 37.332, "Lon": 126.8611, "AQI": 147.0, "Last_Updated": "2026-03-10T01:00:00+09:00"}, "geometry": {"type": "Point", "coordinates": [126.8611, 37.332]}}, {"type": "Feature", "properties": {"fid": 6759, "ID": 1705, "Name": "Sihwa, Siheung-si, Gyeonggi, South Korea (\uc2dc\ud654\uc0b0\ub2e8 \uacbd\uae30)", "Lat": 37.3367, "Lon": 126.7246, "AQI": 95.0, "Last_Updated": "2026-03-10T01:00:00+09:00"}, "geometry": {"type": "Point", "coordinates": [126.7246, 37.3367]}}, {"type": "Feature", "properties": {"fid": 6662, "ID": 3950, "Name": "Jeongwang-dong, Siheung-si, Gyeonggi, South Korea (\uc815\uc655\ub3d9 \uacbd\uae30)", "Lat": 37.3468, "Lon": 126.7401, "AQI": 102.0, "Last_Updated": "2026-03-10T01:00:00+09:00"}, "geometry": {"type": "Point", "coordinates": [126.7401, 37.3468]}}, {"type": "Feature", "properties": {"fid": 6824, "ID": 13536, "Name": "Seohaean-ro, Gyeonggi, South Korea (\uc11c\ud574\uc548\ub85c \uacbd\uae30)", "Lat": 37.354651, "Lon": 126.709878, "AQI": 95.0, "Last_Updated": "2026-03-10T01:00:00+09:00"}, "geometry": {"type": "Point", "coordinates": [126.709878, 37.354651]}}, {"type": "Feature", "properties": {"fid": 6875, "ID": 1715, "Name": "Gocheon-dong, Uiwang-si, Gyeonggi, South Korea (\uace0\ucc9c\ub3d9 \uacbd\uae30)", "Lat": 37.3442, "Lon": 126.969, "AQI": 154.0, "Last_Updated": "2026-03-10T01:00:00+09:00"}, "geometry": {"type": "Point", "coordinates": [126.969, 37.3442]}}, {"type": "Feature", "properties": {"fid": 6899, "ID": 3934, "Name": "Dang-dong, Gunpo-si, Gyeonggi, South Korea (\ub2f9\ub3d9 \uacbd\uae30)", "Lat": 37.3536806, "Lon": 126.9449892, "AQI": 107.0, "Last_Updated": "2026-03-10T01:00:00+09:00"}, "geometry": {"type": "Point", "coordinates": [126.944989, 37.353681]}}, {"type": "Feature", "properties": {"fid": 6909, "ID": 3964, "Name": "Bugok, Uiwang-si, Gyeonggi, South Korea (\ubd80\uace13\ub3d9 \uacbd\uae30)", "Lat": 37.320048, "Lon": 126.948907, "AQI": 124.0, "Last_Updated": "2026-03-10T01:00:00+09:00"}, "geometry": {"type": "Point", "coordinates": [126.948907, 37.320048]}}, {"type": "Feature", "properties": {"fid": 6289, "ID": 10463, "Name": "Seongsan-eup, Jeju, South Korea (\uc131\uc0b0\uc74d \uc81c\uc8fc)", "Lat": 33.460229, "Lon": 126.91007, "AQI": 68.0, "Last_Updated": "2026-03-10T01:00:00+09:00"}, "geometry": {"type": "Point", "coordinates": [126.91007, 33.460229]}}, {"type": "Feature", "properties": {"fid": 6859, "ID": 1713, "Name": "Osan-dong, Osan-si, Gyeonggi, South Korea (\uc624\uc0b0\ub3d9 \uacbd\uae30)", "Lat": 37.1591, "Lon": 127.0771, "AQI": 137.0, "Last_Updated": "2026-03-10T01:00:00+09:00"}, "geometry": {"type": "Point", "coordinates": [127.0771, 37.1591]}}, {"type": "Feature", "properties": {"fid": 6919, "ID": 11890, "Name": "Sinjangdong(Osan), Gyeonggi, South Korea (\uae08\uc554\ub85c(\uc2e0\uc7a5\ub3d9) \uacbd\uae30)", "Lat": 37.1710811, "Lon": 127.052049, "AQI": 151.0, "Last_Updated": "2026-03-10T01:00:00+09:00"}, "geometry": {"type": "Point", "coordinates": [127.052049, 37.171081]}}, {"type": "Feature", "properties": {"fid": 6854, "ID": 11345, "Name": "Cheonggye-dong, Gyeonggi, South Korea (\uccad\uacc4\ub3d9 \uacbd\uae30)", "Lat": 37.1965, "Lon": 127.1194, "AQI": 153.0, "Last_Updated": "2026-03-10T01:00:00+09:00"}, "geometry": {"type": "Point", "coordinates": [127.1194, 37.1965]}}, {"type": "Feature", "properties": {"fid": 6775, "ID": 3969, "Name": "Dongtan-dong, Hwaseong-si, Gyeonggi, South Korea (\ub3d9\ud0c4 \uacbd\uae30)", "Lat": 37.196921, "Lon": 127.0723, "AQI": 151.0, "Last_Updated": "2026-03-10T01:00:00+09:00"}, "geometry": {"type": "Point", "coordinates": [127.0723, 37.196921]}}, {"type": "Feature", "properties": {"fid": 6807, "ID": 3945, "Name": "Yeongtong-dong, Suwon-si, Gyeonggi, South Korea (\uc601\ud1b5\ub3d9 \uacbd\uae30)", "Lat": 37.246927, "Lon": 127.056315, "AQI": 153.0, "Last_Updated": "2026-03-10T01:00:00+09:00"}, "geometry": {"type": "Point", "coordinates": [127.056315, 37.246927]}}, {"type": "Feature", "properties": {"fid": 6790, "ID": 5513, "Name": "Suwon (\uc218\uc6d0\uc2dc)", "Lat": 37.2635727, "Lon": 127.0286009, "AQI": 147.0, "Last_Updated": "2026-03-10T01:00:00+09:00"}, "geometry": {"type": "Point", "coordinates": [127.028601, 37.263573]}}, {"type": "Feature", "properties": {"fid": 6849, "ID": 4505, "Name": "Gugal-dong, Gyeonggi, South Korea (\uc911\ubd80\ub300\ub85c(\uad6c\uac08\ub3d9) \uacbd\uae30)", "Lat": 37.275324, "Lon": 127.113744, "AQI": 154.0, "Last_Updated": "2026-03-10T01:00:00+09:00"}, "geometry": {"type": "Point", "coordinates": [127.113744, 37.275324]}}, {"type": "Feature", "properties": {"fid": 6846, "ID": 4500, "Name": "Dongsuwon, Gyeonggi, South Korea (\uacbd\uc218\ub300\ub85c(\ub3d9\uc218\uc6d0) \uacbd\uae30)", "Lat": 37.2778, "Lon": 127.0306, "AQI": 147.0, "Last_Updated": "2026-03-10T01:00:00+09:00"}, "geometry": {"type": "Point", "coordinates": [127.0306, 37.2778]}}, {"type": "Feature", "properties": {"fid": 6837, "ID": 3947, "Name": "Sinpung-dong, Suwon-si, Gyeonggi, South Korea (\uc2e0\ud48d\ub3d9 \uacbd\uae30)", "Lat": 37.283798, "Lon": 127.010472, "AQI": 137.0, "Last_Updated": "2026-03-10T01:00:00+09:00"}, "geometry": {"type": "Point", "coordinates": [127.010472, 37.283798]}}, {"type": "Feature", "properties": {"fid": 6750, "ID": 3946, "Name": "Uman-dong, Suwon-si, Gyeonggi, South Korea (\uad11\uad50\ub3d9 \uacbd\uae30)", "Lat": 37.291272, "Lon": 127.070818, "AQI": 147.0, "Last_Updated": "2026-03-10T01:00:00+09:00"}, "geometry": {"type": "Point", "coordinates": [127.070818, 37.291272]}}, {"type": "Feature", "properties": {"fid": 6827, "ID": 3963, "Name": "Suji, Yongin-si, Gyeonggi, South Korea (\uc218\uc9c0 \uacbd\uae30)", "Lat": 37.327927, "Lon": 127.095215, "AQI": 157.0, "Last_Updated": "2026-03-10T01:00:00+09:00"}, "geometry": {"type": "Point", "coordinates": [127.095215, 37.327927]}}, {"type": "Feature", "properties": {"fid": 6890, "ID": 3940, "Name": "Jeongja, Seongnam-si, Gyeonggi, South Korea (\uc815\uc790\ub3d9 \uacbd\uae30)", "Lat": 37.36078, "Lon": 127.11933, "AQI": 149.0, "Last_Updated": "2026-03-10T01:00:00+09:00"}, "geometry": {"type": "Point", "coordinates": [127.11933, 37.36078]}}, {"type": "Feature", "properties": {"fid": 6694, "ID": 4501, "Name": "Baekhyeon-dong, Gyeonggi, South Korea (\ub300\uc655\ud310\uad50\ub85c(\ubc31\ud604\ub3d9) \uacbd\uae30)", "Lat": 37.3825762, "Lon": 127.1027442, "AQI": 134.0, "Last_Updated": "2026-03-10T01:00:00+09:00"}, "geometry": {"type": "Point", "coordinates": [127.102744, 37.382576]}}, {"type": "Feature", "properties": {"fid": 6706, "ID": 1703, "Name": "Sunae-dong, Seongnam-si, Gyeonggi, South Korea (\uc218\ub0b4\ub3d9 \uacbd\uae30)", "Lat": 37.382662, "Lon": 127.119103, "AQI": 153.0, "Last_Updated": "2026-03-10T01:00:00+09:00"}, "geometry": {"type": "Point", "coordinates": [127.119103, 37.382662]}}, {"type": "Feature", "properties": {"fid": 6738, "ID": 3943, "Name": "Sangdaewon-dong, Seongnam-si, Gyeonggi, South Korea (\uc6b4\uc911\ub3d9 \uacbd\uae30)", "Lat": 37.390588, "Lon": 127.077838, "AQI": 142.0, "Last_Updated": "2026-03-10T01:00:00+09:00"}, "geometry": {"type": "Point", "coordinates": [127.077838, 37.390588]}}, {"type": "Feature", "properties": {"fid": 6714, "ID": 3942, "Name": "sangdaewon1-dong, Seongnam-si, Gyeonggi, South Korea (\uc0c1\ub300\uc6d0\ub3d9 \uacbd\uae30)", "Lat": 37.433169, "Lon": 127.164372, "AQI": 151.0, "Last_Updated": "2026-03-10T01:00:00+09:00"}, "geometry": {"type": "Point", "coordinates": [127.164372, 37.433169]}}, {"type": "Feature", "properties": {"fid": 6794, "ID": 4502, "Name": "Moranyeok, Gyeonggi, South Korea (\uc131\ub0a8\ub300\ub85c(\ubaa8\ub780\uc5ed) \uacbd\uae30)", "Lat": 37.4339, "Lon": 127.1293, "AQI": 149.0, "Last_Updated": "2026-03-10T01:00:00+09:00"}, "geometry": {"type": "Point", "coordinates": [127.1293, 37.4339]}}, {"type": "Feature", "properties": {"fid": 6704, "ID": 5512, "Name": "Seongnam (\uc131\ub0a8\uc2dc)", "Lat": 37.4449168, "Lon": 127.1388684, "AQI": 149.0, "Last_Updated": "2026-03-10T01:00:00+09:00"}, "geometry": {"type": "Point", "coordinates": [127.138868, 37.444917]}}, {"type": "Feature", "properties": {"fid": 6891, "ID": 3941, "Name": "Dandae-dong, Seongnam-si, Gyeonggi, South Korea (\ub2e8\ub300\ub3d9 \uacbd\uae30)", "Lat": 37.449479, "Lon": 127.155512, "AQI": 155.0, "Last_Updated": "2026-03-10T01:00:00+09:00"}, "geometry": {"type": "Point", "coordinates": [127.155512, 37.449479]}}, {"type": "Feature", "properties": {"fid": 6782, "ID": 3944, "Name": "Bokjeong-dong, Seongnam-si, Gyeonggi, South Korea (\ubcf5\uc815\ub3d9 \uacbd\uae30)", "Lat": 37.4563598, "Lon": 127.1304652, "AQI": 142.0, "Last_Updated": "2026-03-10T01:00:00+09:00"}, "geometry": {"type": "Point", "coordinates": [127.130465, 37.45636]}}, {"type": "Feature", "properties": {"fid": 6290, "ID": 13000, "Name": "Namwon-eup, Jeju, South Korea (\ub0a8\uc6d0\uc74d \uc81c\uc8fc)", "Lat": 33.2843415, "Lon": 126.715115, "AQI": 61.0, "Last_Updated": "2026-03-10T01:00:00+09:00"}, "geometry": {"type": "Point", "coordinates": [126.715115, 33.284341]}}, {"type": "Feature", "properties": {"fid": 6284, "ID": 13556, "Name": "Jocheon-eup, Jeju, South Korea (\uc870\ucc9c\uc74d \uc81c\uc8fc)", "Lat": 33.539831, "Lon": 126.64412, "AQI": 50.0, "Last_Updated": "2026-03-10T01:00:00+09:00"}, "geometry": {"type": "Point", "coordinates": [126.64412, 33.539831]}}, {"type": "Feature", "properties": {"fid": 6291, "ID": 13900, "Name": "Hwabuk-dong, Jeju, South Korea (\ud654\ubd81\ub3d9 \uc81c\uc8fc)", "Lat": 33.51733013, "Lon": 126.57045614, "AQI": 57.0, "Last_Updated": "2026-03-10T01:00:00+09:00"}, "geometry": {"type": "Point", "coordinates": [126.570456, 33.51733]}}, {"type": "Feature", "properties": {"fid": 6283, "ID": 1805, "Name": "Donghong-dong, Seogwipo-si, Jeju, South Korea (\ub3d9\ud64d\ub3d9 \uc81c\uc8fc)", "Lat": 33.246244, "Lon": 126.56506, "AQI": 43.0, "Last_Updated": "2026-03-10T00:00:00+09:00"}, "geometry": {"type": "Point", "coordinates": [126.56506, 33.246244]}}, {"type": "Feature", "properties": {"fid": 6293, "ID": 4042, "Name": "Ido-dong, Jeju-si, Jeju, South Korea (\uc774\ub3c4\ub3d9 \uc81c\uc8fc)", "Lat": 33.500116, "Lon": 126.532371, "AQI": 53.0, "Last_Updated": "2026-03-10T01:00:00+09:00"}, "geometry": {"type": "Point", "coordinates": [126.532371, 33.500116]}}, {"type": "Feature", "properties": {"fid": 6292, "ID": 1806, "Name": "yeon, Jeju-si, Jeju, South Korea (\uc5f0\ub3d9 \uc81c\uc8fc)", "Lat": 33.48863, "Lon": 126.500055, "AQI": 50.0, "Last_Updated": "2026-03-10T01:00:00+09:00"}, "geometry": {"type": "Point", "coordinates": [126.500055, 33.48863]}}, {"type": "Feature", "properties": {"fid": 6287, "ID": 13963, "Name": "Gangjeong-dong, Jeju, South Korea (\uac15\uc815\ub3d9 \uc81c\uc8fc)", "Lat": 33.2508702, "Lon": 126.489923, "AQI": 46.0, "Last_Updated": "2026-03-10T01:00:00+09:00"}, "geometry": {"type": "Point", "coordinates": [126.489923, 33.25087]}}, {"type": "Feature", "properties": {"fid": 6295, "ID": 13002, "Name": "Nohyeong-ro, Jeju, South Korea (\ub178\ud615\ub85c \uc81c\uc8fc)", "Lat": 33.4838002, "Lon": 126.4746922, "AQI": 42.0, "Last_Updated": "2026-03-10T01:00:00+09:00"}, "geometry": {"type": "Point", "coordinates": [126.474692, 33.4838]}}, {"type": "Feature", "properties": {"fid": 6288, "ID": 14886, "Name": "Aewol-eup, Jeju, South Korea (\uc560\uc6d4\uc74d \uc81c\uc8fc)", "Lat": 33.4646731, "Lon": 126.3315087, "AQI": 46.0, "Last_Updated": "2026-03-10T01:00:00+09:00"}, "geometry": {"type": "Point", "coordinates": [126.331509, 33.464673]}}, {"type": "Feature", "properties": {"fid": 6286, "ID": 13555, "Name": "Hallim-eup, Jeju, South Korea (\ud55c\ub9bc\uc74d \uc81c\uc8fc)", "Lat": 33.409109, "Lon": 126.268778, "AQI": 46.0, "Last_Updated": "2026-03-10T01:00:00+09:00"}, "geometry": {"type": "Point", "coordinates": [126.268778, 33.409109]}}, {"type": "Feature", "properties": {"fid": 6285, "ID": 11351, "Name": "Daejeong-eup, Jeju, South Korea (\ub300\uc815\uc74d \uc81c\uc8fc)", "Lat": 33.2277489, "Lon": 126.2473589, "AQI": 42.0, "Last_Updated": "2026-03-10T00:00:00+09:00"}, "geometry": {"type": "Point", "coordinates": [126.247359, 33.227749]}}, {"type": "Feature", "properties": {"fid": 6735, "ID": 4494, "Name": "Yeongdeungpo, Seoul, South Korea (\uc601\ub4f1\ud3ec \uc11c\uc6b8)", "Lat": 37.520222, "Lon": 126.904967, "AQI": 112.0, "Last_Updated": "2026-03-10T01:00:00+09:00"}, "geometry": {"type": "Point", "coordinates": [126.904967, 37.520222]}}, {"type": "Feature", "properties": {"fid": 6664, "ID": 3939, "Name": "Nae-dong, Bucheon-si, Gyeonggi, South Korea (\ub0b4\ub3d9 \uacbd\uae30)", "Lat": 37.5203, "Lon": 126.7737, "AQI": 132.0, "Last_Updated": "2026-03-10T01:00:00+09:00"}, "geometry": {"type": "Point", "coordinates": [126.7737, 37.5203]}}, {"type": "Feature", "properties": {"fid": 6632, "ID": 1686, "Name": "Yeongdeungpo-gu, Seoul, South Korea (\uc601\ub4f1\ud3ec\uad6c \uc11c\uc6b8)", "Lat": 37.525007, "Lon": 126.89737, "AQI": 109.0, "Last_Updated": "2026-03-10T01:00:00+09:00"}, "geometry": {"type": "Point", "coordinates": [126.89737, 37.525007]}}, {"type": "Feature", "properties": {"fid": 6699, "ID": 11333, "Name": "Cheongna, Incheon, South Korea (\uccad\ub77c \uc778\ucc9c)", "Lat": 37.537745, "Lon": 126.63879, "AQI": 99.0, "Last_Updated": "2026-03-10T01:00:00+09:00"}, "geometry": {"type": "Point", "coordinates": [126.63879, 37.537745]}}, {"type": "Feature", "properties": {"fid": 6728, "ID": 1670, "Name": "Gangseo-gu, Seoul, South Korea (\uac15\uc11c\uad6c \uc11c\uc6b8)", "Lat": 37.544656, "Lon": 126.835094, "AQI": 112.0, "Last_Updated": "2026-03-10T01:00:00+09:00"}, "geometry": {"type": "Point", "coordinates": [126.835094, 37.544656]}}, {"type": "Feature", "properties": {"fid": 6657, "ID": 1679, "Name": "Mapo-gu, Seoul, South Korea (\ub9c8\ud3ec\uad6c \uc11c\uc6b8)", "Lat": 37.55561, "Lon": 126.905457, "AQI": 147.0, "Last_Updated": "2026-03-10T01:00:00+09:00"}, "geometry": {"type": "Point", "coordinates": [126.905457, 37.55561]}}, {"type": "Feature", "properties": {"fid": 6672, "ID": 13547, "Name": "Gyeonginhang, Incheon, South Korea (\uacbd\uc778\ud56d \uc778\ucc9c)", "Lat": 37.566459, "Lon": 126.595122, "AQI": 68.0, "Last_Updated": "2026-03-10T01:00:00+09:00"}, "geometry": {"type": "Point", "coordinates": [126.595122, 37.566459]}}, {"type": "Feature", "properties": {"fid": 6645, "ID": 4486, "Name": "Cheonggyecheon, Seoul, South Korea (\uccad\uacc4\ucc9c\ub85c \uc11c\uc6b8)", "Lat": 37.56865, "Lon": 126.998083, "AQI": 139.0, "Last_Updated": "2026-03-10T01:00:00+09:00"}, "geometry": {"type": "Point", "coordinates": [126.998083, 37.56865]}}, {"type": "Feature", "properties": {"fid": 6649, "ID": 1689, "Name": "Jongno-gu, Seoul, South Korea (\uc885\ub85c\uad6c \uc11c\uc6b8)", "Lat": 37.572025, "Lon": 127.005028, "AQI": 151.0, "Last_Updated": "2026-03-10T01:00:00+09:00"}, "geometry": {"type": "Point", "coordinates": [127.005028, 37.572025]}}, {"type": "Feature", "properties": {"fid": 6739, "ID": 1699, "Name": "Gochon-myeon, Gimpo-si, Gyeonggi, South Korea (\uace0\ucd0c\uc74d \uacbd\uae30)", "Lat": 37.606724, "Lon": 126.762831, "AQI": 93.0, "Last_Updated": "2026-03-10T01:00:00+09:00"}, "geometry": {"type": "Point", "coordinates": [126.762831, 37.606724]}}, {"type": "Feature", "properties": {"fid": 6651, "ID": 3936, "Name": "Sau-dong, Gimpo-si, Gyeonggi, South Korea (\uc0ac\uc6b0\ub3d9 \uacbd\uae30)", "Lat": 37.619335, "Lon": 126.716748, "AQI": 82.0, "Last_Updated": "2026-03-10T01:00:00+09:00"}, "geometry": {"type": "Point", "coordinates": [126.716748, 37.619335]}}, {"type": "Feature", "properties": {"fid": 6754, "ID": 12553, "Name": "Gilsang, Incheon, South Korea (\uae38\uc0c1 \uc778\ucc9c)", "Lat": 37.640887, "Lon": 126.490972, "AQI": 99.0, "Last_Updated": "2026-03-10T01:00:00+09:00"}, "geometry": {"type": "Point", "coordinates": [126.490972, 37.640887]}}, {"type": "Feature", "properties": {"fid": 6673, "ID": 12989, "Name": "Hangangsindosi, Gyeonggi, South Korea (\ud55c\uac15\uc2e0\ub3c4\uc2dc \uacbd\uae30)", "Lat": 37.6532578, "Lon": 126.6292725, "AQI": 117.0, "Last_Updated": "2026-03-10T01:00:00+09:00"}, "geometry": {"type": "Point", "coordinates": [126.629272, 37.653258]}}, {"type": "Feature", "properties": {"fid": 6732, "ID": 4504, "Name": "Maduyeok, Gyeonggi, South Korea (\ubc31\ub9c8\ub85c(\ub9c8\ub450\uc5ed) \uacbd\uae30)", "Lat": 37.6545086, "Lon": 126.7755571, "AQI": 85.0, "Last_Updated": "2026-03-10T01:00:00+09:00"}, "geometry": {"type": "Point", "coordinates": [126.775557, 37.654509]}}, {"type": "Feature", "properties": {"fid": 6708, "ID": 9543, "Name": "Goyang-si Sinwon-dong, Gyeonggi, South Korea (\uc2e0\uc6d0\ub3d9 \uacbd\uae30)", "Lat": 37.666362, "Lon": 126.886708, "AQI": 153.0, "Last_Updated": "2026-03-10T01:00:00+09:00"}, "geometry": {"type": "Point", "coordinates": [126.886708, 37.666362]}}, {"type": "Feature", "properties": {"fid": 6695, "ID": 11343, "Name": "Juyeop-dong, Gyeonggi, South Korea (\uc8fc\uc5fd\ub3d9 \uacbd\uae30)", "Lat": 37.6683, "Lon": 126.7564, "AQI": 85.0, "Last_Updated": "2026-03-10T01:00:00+09:00"}, "geometry": {"type": "Point", "coordinates": [126.7564, 37.6683]}}, {"type": "Feature", "properties": {"fid": 6741, "ID": 1693, "Name": "Siksa-dong, Goyang-si, Gyeonggi, South Korea (\uc2dd\uc0ac\ub3d9 \uacbd\uae30)", "Lat": 37.685514, "Lon": 126.813441, "AQI": 124.0, "Last_Updated": "2026-03-10T01:00:00+09:00"}, "geometry": {"type": "Point", "coordinates": [126.813441, 37.685514]}}, {"type": "Feature", "properties": {"fid": 6723, "ID": 3935, "Name": "Tongjin-eup, Gimpo-si, Gyeonggi, South Korea (\uc6d4\uacf6\uba74 \uacbd\uae30)", "Lat": 37.7151, "Lon": 126.5526, "AQI": 99.0, "Last_Updated": "2026-03-10T01:00:00+09:00"}, "geometry": {"type": "Point", "coordinates": [126.5526, 37.7151]}}, {"type": "Feature", "properties": {"fid": 6765, "ID": 4492, "Name": "Sinchon, Seoul, South Korea (\uc2e0\ucd0c \uc11c\uc6b8)", "Lat": 37.554936, "Lon": 126.937619, "AQI": 142.0, "Last_Updated": "2026-03-10T01:00:00+09:00"}, "geometry": {"type": "Point", "coordinates": [126.937619, 37.554936]}}, {"type": "Feature", "properties": {"fid": 6766, "ID": 3975, "Name": "Wondang, Seo-gu, Incheon, South Korea (\uc6d0\ub2f9 \uc778\ucc9c)", "Lat": 37.5941, "Lon": 126.6986, "AQI": 102.0, "Last_Updated": "2026-03-10T01:00:00+09:00"}, "geometry": {"type": "Point", "coordinates": [126.6986, 37.5941]}}, {"type": "Feature", "properties": {"fid": 6778, "ID": 5509, "Name": "Goyang (\uace0\uc591\uc2dc)", "Lat": 37.6583599, "Lon": 126.8320201, "AQI": 85.0, "Last_Updated": "2026-03-10T01:00:00+09:00"}, "geometry": {"type": "Point", "coordinates": [126.83202, 37.65836]}}, {"type": "Feature", "properties": {"fid": 6783, "ID": 1690, "Name": "Jung-gu, Seoul, South Korea (\uc911\uad6c \uc11c\uc6b8)", "Lat": 37.564639, "Lon": 126.975961, "AQI": 144.0, "Last_Updated": "2026-03-10T01:00:00+09:00"}, "geometry": {"type": "Point", "coordinates": [126.975961, 37.564639]}}, {"type": "Feature", "properties": {"fid": 6784, "ID": 3930, "Name": "Haengsin-dong, Goyang-si, Gyeonggi, South Korea (\ud589\uc2e0\ub3d9 \uacbd\uae30)", "Lat": 37.6251, "Lon": 126.8423, "AQI": 142.0, "Last_Updated": "2026-03-10T01:00:00+09:00"}, "geometry": {"type": "Point", "coordinates": [126.8423, 37.6251]}}, {"type": "Feature", "properties": {"fid": 6785, "ID": 5508, "Name": "Seoul (\uc11c\uc6b8)", "Lat": 37.566535, "Lon": 126.9779692, "AQI": 151.0, "Last_Updated": "2026-03-10T01:00:00+09:00"}, "geometry": {"type": "Point", "coordinates": [126.977969, 37.566535]}}, {"type": "Feature", "properties": {"fid": 6813, "ID": 1702, "Name": "Wonjong-dong, Bucheon-si, Gyeonggi, South Korea (\uc624\uc815\ub3d9 \uacbd\uae30)", "Lat": 37.5278, "Lon": 126.7967, "AQI": 107.0, "Last_Updated": "2026-03-10T01:00:00+09:00"}, "geometry": {"type": "Point", "coordinates": [126.7967, 37.5278]}}, {"type": "Feature", "properties": {"fid": 6818, "ID": 14887, "Name": "Hyoseong, Incheon, South Korea (\ud6a8\uc131 \uc778\ucc9c)", "Lat": 37.52922, "Lon": 126.71511, "AQI": 91.0, "Last_Updated": "2026-03-10T01:00:00+09:00"}, "geometry": {"type": "Point", "coordinates": [126.71511, 37.52922]}}, {"type": "Feature", "properties": {"fid": 6829, "ID": 3966, "Name": ", Paju-si, Gyeonggi, South Korea (\uc6b4\uc815 \uacbd\uae30)", "Lat": 37.723148, "Lon": 126.756434, "AQI": 109.0, "Last_Updated": "2026-03-10T01:00:00+09:00"}, "geometry": {"type": "Point", "coordinates": [126.756434, 37.723148]}}, {"type": "Feature", "properties": {"fid": 6831, "ID": 1687, "Name": "Yongsan-gu, Seoul, South Korea (\uc6a9\uc0b0\uad6c \uc11c\uc6b8)", "Lat": 37.540314, "Lon": 127.005083, "AQI": 137.0, "Last_Updated": "2026-03-10T01:00:00+09:00"}, "geometry": {"type": "Point", "coordinates": [127.005083, 37.540314]}}, {"type": "Feature", "properties": {"fid": 6850, "ID": 1688, "Name": "Bulgwang-dong, Eunpyeong-gu, Seoul, South Korea (\uc740\ud3c9\uad6c \uc11c\uc6b8)", "Lat": 37.6104714, "Lon": 126.9335038, "AQI": 137.0, "Last_Updated": "2026-03-10T01:00:00+09:00"}, "geometry": {"type": "Point", "coordinates": [126.933504, 37.610471]}}, {"type": "Feature", "properties": {"fid": 6857, "ID": 1685, "Name": "Yangcheon-gu, Seoul, South Korea (\uc591\ucc9c\uad6c \uc11c\uc6b8)", "Lat": 37.523286, "Lon": 126.858689, "AQI": 112.0, "Last_Updated": "2026-03-10T01:00:00+09:00"}, "geometry": {"type": "Point", "coordinates": [126.858689, 37.523286]}}, {"type": "Feature", "properties": {"fid": 6868, "ID": 1680, "Name": "Seodaemun-gu, Seoul, South Korea (\uc11c\ub300\ubb38\uad6c \uc11c\uc6b8)", "Lat": 37.593749, "Lon": 126.949534, "AQI": 112.0, "Last_Updated": "2026-03-10T01:00:00+09:00"}, "geometry": {"type": "Point", "coordinates": [126.949534, 37.593749]}}, {"type": "Feature", "properties": {"fid": 6872, "ID": 1722, "Name": "Songhae, Ganghwa-gun, Incheon, South Korea (\uc1a1\ud574 \uc778\ucc9c)", "Lat": 37.764444, "Lon": 126.463333, "AQI": 76.0, "Last_Updated": "2026-03-10T01:00:00+09:00"}, "geometry": {"type": "Point", "coordinates": [126.463333, 37.764444]}}, {"type": "Feature", "properties": {"fid": 6876, "ID": 4485, "Name": "Seouryeok, Seoul, South Korea (\ud55c\uac15\ub300\ub85c \uc11c\uc6b8)", "Lat": 37.549389, "Lon": 126.971519, "AQI": 119.0, "Last_Updated": "2026-03-10T01:00:00+09:00"}, "geometry": {"type": "Point", "coordinates": [126.971519, 37.549389]}}, {"type": "Feature", "properties": {"fid": 6880, "ID": 4493, "Name": "Gonghangro, Seoul, South Korea (\uacf5\ud56d\ub300\ub85c \uc11c\uc6b8)", "Lat": 37.562821, "Lon": 126.826071, "AQI": 99.0, "Last_Updated": "2026-03-10T01:00:00+09:00"}, "geometry": {"type": "Point", "coordinates": [126.826071, 37.562821]}}, {"type": "Feature", "properties": {"fid": 6881, "ID": 1723, "Name": "Gyesan, Gyeyang-gu, Incheon, South Korea (\uacc4\uc0b0 \uc778\ucc9c)", "Lat": 37.546111, "Lon": 126.730278, "AQI": 78.0, "Last_Updated": "2026-03-10T01:00:00+09:00"}, "geometry": {"type": "Point", "coordinates": [126.730278, 37.546111]}}, {"type": "Feature", "properties": {"fid": 6882, "ID": 3974, "Name": "Yeonhui, Seo-gu, Incheon, South Korea (\uc5f0\ud76c \uc778\ucc9c)", "Lat": 37.545556, "Lon": 126.675833, "AQI": 107.0, "Last_Updated": "2026-03-10T01:00:00+09:00"}, "geometry": {"type": "Point", "coordinates": [126.675833, 37.545556]}}, {"type": "Feature", "properties": {"fid": 6884, "ID": 9542, "Name": "Paju, Gyeonggi, South Korea (\ud30c\uc8fc \uacbd\uae30)", "Lat": 37.906227, "Lon": 126.73108, "AQI": 102.0, "Last_Updated": "2026-03-10T01:00:00+09:00"}, "geometry": {"type": "Point", "coordinates": [126.73108, 37.906227]}}, {"type": "Feature", "properties": {"fid": 6893, "ID": 1717, "Name": "Geumchon-dong, Paju-si, Gyeonggi, South Korea (\uae08\ucd0c\ub3d9 \uacbd\uae30)", "Lat": 37.756308, "Lon": 126.773898, "AQI": 93.0, "Last_Updated": "2026-03-10T01:00:00+09:00"}, "geometry": {"type": "Point", "coordinates": [126.773898, 37.756308]}}, {"type": "Feature", "properties": {"fid": 6900, "ID": 1728, "Name": "Geomdan, Seo-gu, Incheon, South Korea (\uac80\ub2e8 \uc778\ucc9c)", "Lat": 37.602041, "Lon": 126.661444, "AQI": 102.0, "Last_Updated": "2026-03-10T01:00:00+09:00"}, "geometry": {"type": "Point", "coordinates": [126.661444, 37.602041]}}, {"type": "Feature", "properties": {"fid": 6905, "ID": 12995, "Name": "Paju-eup, Gyeonggi, South Korea (\ud30c\uc8fc\uc74d \uacbd\uae30)", "Lat": 37.8309, "Lon": 126.833, "AQI": 127.0, "Last_Updated": "2026-03-10T01:00:00+09:00"}, "geometry": {"type": "Point", "coordinates": [126.833, 37.8309]}}, {"type": "Feature", "properties": {"fid": 6917, "ID": 13245, "Name": "Hangang-ro, Gyeonggi, South Korea (\ud55c\uac15\ub85c \uacbd\uae30)", "Lat": 37.649034, "Lon": 126.675064, "AQI": 87.0, "Last_Updated": "2026-03-10T01:00:00+09:00"}, "geometry": {"type": "Point", "coordinates": [126.675064, 37.649034]}}, {"type": "Feature", "properties": {"fid": 6392, "ID": 13964, "Name": "Chunpo-myeon, Jeonbuk, South Korea (\ucd98\ud3ec\uba74 \uc804\ubd81)", "Lat": 35.90103, "Lon": 127.005272, "AQI": 89.0, "Last_Updated": "2026-03-10T01:00:00+09:00"}, "geometry": {"type": "Point", "coordinates": [127.005272, 35.90103]}}, {"type": "Feature", "properties": {"fid": 6394, "ID": 13007, "Name": "Oksan-myeon, Jeonbuk, South Korea (\uc625\uc0b0\uba74 \uc804\ubd81)", "Lat": 35.93937, "Lon": 126.74836, "AQI": 61.0, "Last_Updated": "2026-03-10T01:00:00+09:00"}, "geometry": {"type": "Point", "coordinates": [126.74836, 35.93937]}}, {"type": "Feature", "properties": {"fid": 6385, "ID": 13004, "Name": "Bongdong-eup, Jeonbuk, South Korea (\ubd09\ub3d9\uc74d \uc804\ubd81)", "Lat": 35.941567, "Lon": 127.165783, "AQI": 153.0, "Last_Updated": "2026-03-10T01:00:00+09:00"}, "geometry": {"type": "Point", "coordinates": [127.165783, 35.941567]}}, {"type": "Feature", "properties": {"fid": 6356, "ID": 5532, "Name": "Iksan (\uc625\uc0ac\ub098\uc2dc)", "Lat": 35.9482858, "Lon": 126.9575991, "AQI": 107.0, "Last_Updated": "2026-03-10T01:00:00+09:00"}, "geometry": {"type": "Point", "coordinates": [126.957599, 35.948286]}}, {"type": "Feature", "properties": {"fid": 6339, "ID": 13003, "Name": "Bieungdo-dong, Jeonbuk, South Korea (\ube44\uc751\ub3c4\ub3d9 \uc804\ubd81)", "Lat": 35.94904, "Lon": 126.58341, "AQI": 76.0, "Last_Updated": "2026-03-10T01:00:00+09:00"}, "geometry": {"type": "Point", "coordinates": [126.58341, 35.94904]}}, {"type": "Feature", "properties": {"fid": 6382, "ID": 4038, "Name": ", Iksan-si, Jeonbuk, South Korea (\ubaa8\ud604\ub3d9 \uc804\ubd81)", "Lat": 35.9546, "Lon": 126.9414, "AQI": 82.0, "Last_Updated": "2026-03-10T01:00:00+09:00"}, "geometry": {"type": "Point", "coordinates": [126.9414, 35.9546]}}, {"type": "Feature", "properties": {"fid": 6325, "ID": 13967, "Name": "Soryongdong2, Jeonbuk, South Korea (\uc18c\ub8e1\ub3d92 \uc804\ubd81)", "Lat": 35.959167, "Lon": 126.596692, "AQI": 76.0, "Last_Updated": "2026-03-10T01:00:00+09:00"}, "geometry": {"type": "Point", "coordinates": [126.596692, 35.959167]}}, {"type": "Feature", "properties": {"fid": 6388, "ID": 1802, "Name": "Palbong-dong, Iksan-si, Jeonbuk, South Korea (\ud314\ubd09\ub3d9 \uc804\ubd81)", "Lat": 35.961633, "Lon": 127.004233, "AQI": 107.0, "Last_Updated": "2026-03-10T01:00:00+09:00"}, "geometry": {"type": "Point", "coordinates": [127.004233, 35.961633]}}, {"type": "Feature", "properties": {"fid": 6428, "ID": 4037, "Name": "Gaejeong-dong, Gunsan-si, Jeonbuk, South Korea (\uc0ac\uc815\ub3d9 \uc804\ubd81)", "Lat": 35.964433, "Lon": 126.754533, "AQI": 72.0, "Last_Updated": "2026-03-10T01:00:00+09:00"}, "geometry": {"type": "Point", "coordinates": [126.754533, 35.964433]}}, {"type": "Feature", "properties": {"fid": 6412, "ID": 5531, "Name": "Gunsan (\uad70\uc0b0\uc2dc)", "Lat": 35.9676772, "Lon": 126.7366293, "AQI": 72.0, "Last_Updated": "2026-03-10T01:00:00+09:00"}, "geometry": {"type": "Point", "coordinates": [126.736629, 35.967677]}}, {"type": "Feature", "properties": {"fid": 6362, "ID": 1800, "Name": "Sinpung-dong, Gunsan-si, Jeonbuk, South Korea (\uc2e0\ud48d\ub3d9(\uad70\uc0b0) \uc804\ubd81)", "Lat": 35.97285, "Lon": 126.700733, "AQI": null, "Last_Updated": "2026-03-09T10:00:00+09:00"}, "geometry": {"type": "Point", "coordinates": [126.700733, 35.97285]}}, {"type": "Feature", "properties": {"fid": 6324, "ID": 4036, "Name": "Soryong-dong, Gunsan-si, Jeonbuk, South Korea (\uc18c\ub8e1\ub3d9 \uc804\ubd81)", "Lat": 35.973333, "Lon": 126.651417, "AQI": 76.0, "Last_Updated": "2026-03-10T01:00:00+09:00"}, "geometry": {"type": "Point", "coordinates": [126.651417, 35.973333]}}, {"type": "Feature", "properties": {"fid": 6420, "ID": 13558, "Name": "Gunsanhang, Jeonbuk, South Korea (\uad70\uc0b0\ud56d \uc804\ubd81)", "Lat": 35.974693, "Lon": 126.58676, "AQI": 74.0, "Last_Updated": "2026-03-10T01:00:00+09:00"}, "geometry": {"type": "Point", "coordinates": [126.58676, 35.974693]}}, {"type": "Feature", "properties": {"fid": 6346, "ID": 10449, "Name": "Gosan-myeon, Jeonbuk, South Korea (\uace0\uc0b0\uba74 \uc804\ubd81)", "Lat": 35.976403, "Lon": 127.205523, "AQI": 149.0, "Last_Updated": "2026-03-10T01:00:00+09:00"}, "geometry": {"type": "Point", "coordinates": [127.205523, 35.976403]}}, {"type": "Feature", "properties": {"fid": 6361, "ID": 14004, "Name": "Geumma-myeon, Jeonbuk, South Korea (\uae08\ub9c8\uba74 \uc804\ubd81)", "Lat": 35.985621, "Lon": 127.047468, "AQI": 82.0, "Last_Updated": "2026-03-10T01:00:00+09:00"}, "geometry": {"type": "Point", "coordinates": [127.047468, 35.985621]}}, {"type": "Feature", "properties": {"fid": 6700, "ID": 11494, "Name": "Janghang-eup, Chungnam, South Korea (\uc7a5\ud56d\uc74d \ucda9\ub0a8)", "Lat": 36.0082698, "Lon": 126.6931231, "AQI": 91.0, "Last_Updated": "2026-03-10T01:00:00+09:00"}, "geometry": {"type": "Point", "coordinates": [126.693123, 36.00827]}}, {"type": "Feature", "properties": {"fid": 6684, "ID": 13008, "Name": "Samgi-myeon, Jeonbuk, South Korea (\uc0bc\uae30\uba74 \uc804\ubd81)", "Lat": 36.0202555, "Lon": 126.9838398, "AQI": 95.0, "Last_Updated": "2026-03-10T01:00:00+09:00"}, "geometry": {"type": "Point", "coordinates": [126.98384, 36.020255]}}, {"type": "Feature", "properties": {"fid": 6787, "ID": 13969, "Name": "Yeosan-myeon, Jeonbuk, South Korea (\uc5ec\uc0b0\uba74 \uc804\ubd81)", "Lat": 36.059713, "Lon": 127.08331, "AQI": 119.0, "Last_Updated": "2026-03-10T01:00:00+09:00"}, "geometry": {"type": "Point", "coordinates": [127.08331, 36.059713]}}, {"type": "Feature", "properties": {"fid": 6724, "ID": 10478, "Name": "Seocheon-eup, Chungnam, South Korea (\uc11c\ucc9c\uc74d \ucda9\ub0a8)", "Lat": 36.076309, "Lon": 126.698383, "AQI": null, "Last_Updated": "2026-03-10T01:00:00+09:00"}, "geometry": {"type": "Point", "coordinates": [126.698383, 36.076309]}}, {"type": "Feature", "properties": {"fid": 6692, "ID": 13005, "Name": "Hamyeol-eup, Jeonbuk, South Korea (\ud568\uc5f4\uc74d \uc804\ubd81)", "Lat": 36.07865, "Lon": 126.96658, "AQI": 95.0, "Last_Updated": "2026-03-10T01:00:00+09:00"}, "geometry": {"type": "Point", "coordinates": [126.96658, 36.07865]}}, {"type": "Feature", "properties": {"fid": 6716, "ID": 13009, "Name": "Yongdong-myeon, Jeonbuk, South Korea (\uc6a9\ub3d9\uba74 \uc804\ubd81)", "Lat": 36.1097343, "Lon": 126.9915668, "AQI": 99.0, "Last_Updated": "2026-03-10T01:00:00+09:00"}, "geometry": {"type": "Point", "coordinates": [126.991567, 36.109734]}}, {"type": "Feature", "properties": {"fid": 6839, "ID": 10479, "Name": "Seo-myeon, Chungnam, South Korea (\uc11c\uba74 \ucda9\ub0a8)", "Lat": 36.15287, "Lon": 126.549494, "AQI": 74.0, "Last_Updated": "2026-03-10T01:00:00+09:00"}, "geometry": {"type": "Point", "coordinates": [126.549494, 36.15287]}}, {"type": "Feature", "properties": {"fid": 6896, "ID": 13247, "Name": "Yeonmu-eup, Chungnam, South Korea (\uc5f0\ubb34\uc74d \ucda9\ub0a8)", "Lat": 36.125022, "Lon": 127.096762, "AQI": 114.0, "Last_Updated": "2026-03-10T01:00:00+09:00"}, "geometry": {"type": "Point", "coordinates": [127.096762, 36.125022]}}, {"type": "Feature", "properties": {"fid": 6761, "ID": 13958, "Name": "Baegot-dong, Gyeonggi, South Korea (\ubc30\uace7\ub3d9 \uacbd\uae30)", "Lat": 37.373823, "Lon": 126.73289, "AQI": 109.0, "Last_Updated": "2026-03-10T01:00:00+09:00"}, "geometry": {"type": "Point", "coordinates": [126.73289, 37.373823]}}, {"type": "Feature", "properties": {"fid": 6776, "ID": 12991, "Name": "Janghyeon-dong, Gyeonggi, South Korea (\uc7a5\ud604\ub3d9 \uacbd\uae30)", "Lat": 37.3801, "Lon": 126.8041, "AQI": 117.0, "Last_Updated": "2026-03-10T01:00:00+09:00"}, "geometry": {"type": "Point", "coordinates": [126.8041, 37.3801]}}, {"type": "Feature", "properties": {"fid": 6681, "ID": 3960, "Name": "Hogye-dong, Anyang-si, Gyeonggi, South Korea (\ud638\uacc4\ub3d9 \uacbd\uae30)", "Lat": 37.381136, "Lon": 126.952641, "AQI": 122.0, "Last_Updated": "2026-03-10T01:00:00+09:00"}, "geometry": {"type": "Point", "coordinates": [126.952641, 37.381136]}}, {"type": "Feature", "properties": {"fid": 6745, "ID": 10480, "Name": "Songdo, Incheon, South Korea (\uc1a1\ub3c4 \uc778\ucc9c)", "Lat": 37.382084, "Lon": 126.654663, "AQI": 85.0, "Last_Updated": "2026-03-10T01:00:00+09:00"}, "geometry": {"type": "Point", "coordinates": [126.654663, 37.382084]}}, {"type": "Feature", "properties": {"fid": 6763, "ID": 3958, "Name": "Anyang-6dong, Anyang-si, Gyeonggi, South Korea (\uc548\uc5918\ub3d9 \uacbd\uae30)", "Lat": 37.389996, "Lon": 126.930583, "AQI": 129.0, "Last_Updated": "2026-03-10T01:00:00+09:00"}, "geometry": {"type": "Point", "coordinates": [126.930583, 37.389996]}}, {"type": "Feature", "properties": {"fid": 6669, "ID": 3972, "Name": "Nonhyeon, Namdong-gu, Incheon, South Korea (\ub17c\ud604 \uc778\ucc9c)", "Lat": 37.404167, "Lon": 126.726111, "AQI": 112.0, "Last_Updated": "2026-03-10T01:00:00+09:00"}, "geometry": {"type": "Point", "coordinates": [126.726111, 37.404167]}}, {"type": "Feature", "properties": {"fid": 6772, "ID": 1725, "Name": "Gojan, Namdong-gu, Incheon, South Korea (\uace0\uc794 \uc778\ucc9c)", "Lat": 37.404839, "Lon": 126.697158, "AQI": 99.0, "Last_Updated": "2026-03-10T01:00:00+09:00"}, "geometry": {"type": "Point", "coordinates": [126.697158, 37.404839]}}, {"type": "Feature", "properties": {"fid": 6727, "ID": 13546, "Name": "Aam, Incheon, South Korea (\uc544\uc554 \uc778\ucc9c)", "Lat": 37.40508, "Lon": 126.63227, "AQI": 91.0, "Last_Updated": "2026-03-10T01:00:00+09:00"}, "geometry": {"type": "Point", "coordinates": [126.63227, 37.40508]}}, {"type": "Feature", "properties": {"fid": 6628, "ID": 1729, "Name": "Dongchun, Yeonsu-gu, Incheon, South Korea (\ub3d9\ucd98 \uc778\ucc9c)", "Lat": 37.409493, "Lon": 126.678309, "AQI": 87.0, "Last_Updated": "2026-03-10T01:00:00+09:00"}, "geometry": {"type": "Point", "coordinates": [126.678309, 37.409493]}}, {"type": "Feature", "properties": {"fid": 6847, "ID": 3931, "Name": "Byeoryang-dong, Gwacheon-si, Gyeonggi, South Korea (\ubcc4\uc591\ub3d9 \uacbd\uae30)", "Lat": 37.423889, "Lon": 126.994512, "AQI": 149.0, "Last_Updated": "2026-03-10T01:00:00+09:00"}, "geometry": {"type": "Point", "coordinates": [126.994512, 37.423889]}}, {"type": "Feature", "properties": {"fid": 6646, "ID": 13551, "Name": "Seochang, Incheon, South Korea (\uc11c\ucc3d \uc778\ucc9c)", "Lat": 37.4274, "Lon": 126.7461, "AQI": 114.0, "Last_Updated": "2026-03-10T01:00:00+09:00"}, "geometry": {"type": "Point", "coordinates": [126.7461, 37.4274]}}, {"type": "Feature", "properties": {"fid": 6760, "ID": 12999, "Name": "Nam-dong, Incheon, South Korea (\ub0a8\ub3d9 \uc778\ucc9c)", "Lat": 37.441164, "Lon": 126.706817, "AQI": 99.0, "Last_Updated": "2026-03-10T01:00:00+09:00"}, "geometry": {"type": "Point", "coordinates": [126.706817, 37.441164]}}, {"type": "Feature", "properties": {"fid": 6647, "ID": 3951, "Name": "Daeya-dong, Siheung-si, Gyeonggi, South Korea (\ub300\uc57c\ub3d9 \uacbd\uae30)", "Lat": 37.4431, "Lon": 126.7884, "AQI": 91.0, "Last_Updated": "2026-03-10T01:00:00+09:00"}, "geometry": {"type": "Point", "coordinates": [126.7884, 37.4431]}}, {"type": "Feature", "properties": {"fid": 6848, "ID": 1694, "Name": "Gwacheon-dong, Gwacheon-si, Gyeonggi, South Korea (\uacfc\ucc9c\ub3d9 \uacbd\uae30)", "Lat": 37.448806, "Lon": 127.002329, "AQI": 137.0, "Last_Updated": "2026-03-10T01:00:00+09:00"}, "geometry": {"type": "Point", "coordinates": [127.002329, 37.448806]}}, {"type": "Feature", "properties": {"fid": 6768, "ID": 3971, "Name": "Guwol, Namdong-gu, Incheon, South Korea (\uad6c\uc6d4\ub3d9 \uc778\ucc9c)", "Lat": 37.449722, "Lon": 126.724167, "AQI": 102.0, "Last_Updated": "2026-03-10T01:00:00+09:00"}, "geometry": {"type": "Point", "coordinates": [126.724167, 37.449722]}}, {"type": "Feature", "properties": {"fid": 6777, "ID": 5517, "Name": "Incheon (\uc778\ucc9c)", "Lat": 37.4562557, "Lon": 126.7052062, "AQI": 102.0, "Last_Updated": "2026-03-10T01:00:00+09:00"}, "geometry": {"type": "Point", "coordinates": [126.705206, 37.456256]}}, {"type": "Feature", "properties": {"fid": 6633, "ID": 4538, "Name": "Seokbawi, Incheon, South Korea (\uc11d\ubc14\uc704 \uc778\ucc9c)", "Lat": 37.457778, "Lon": 126.690833, "AQI": 102.0, "Last_Updated": "2026-03-10T01:00:00+09:00"}, "geometry": {"type": "Point", "coordinates": [126.690833, 37.457778]}}, {"type": "Feature", "properties": {"fid": 6658, "ID": 13043, "Name": "The Yellow Sea, Incheon, South Korea (\uc11c\ud574 \uc778\ucc9c)", "Lat": 37.460709, "Lon": 126.631266, "AQI": 102.0, "Last_Updated": "2026-03-10T01:00:00+09:00"}, "geometry": {"type": "Point", "coordinates": [126.631266, 37.460709]}}, {"type": "Feature", "properties": {"fid": 6656, "ID": 13548, "Name": "Incheonhang, Incheon, South Korea (\uc778\ucc9c\ud56d \uc778\ucc9c)", "Lat": 37.463043, "Lon": 126.624209, "AQI": 70.0, "Last_Updated": "2026-03-10T01:00:00+09:00"}, "geometry": {"type": "Point", "coordinates": [126.624209, 37.463043]}}, {"type": "Feature", "properties": {"fid": 6773, "ID": 1730, "Name": "Sinheung-dong, Jung-gu, Incheon, South Korea (\uc2e0\ud765 \uc778\ucc9c)", "Lat": 37.468333, "Lon": 126.635, "AQI": 93.0, "Last_Updated": "2026-03-10T01:00:00+09:00"}, "geometry": {"type": "Point", "coordinates": [126.635, 37.468333]}}, {"type": "Feature", "properties": {"fid": 6755, "ID": 1724, "Name": "Sungui, Nam-gu, Incheon, South Korea (\uc22d\uc758 \uc778\ucc9c)", "Lat": 37.4725, "Lon": 126.6686, "AQI": 93.0, "Last_Updated": "2026-03-10T01:00:00+09:00"}, "geometry": {"type": "Point", "coordinates": [126.6686, 37.4725]}}, {"type": "Feature", "properties": {"fid": 6707, "ID": 3932, "Name": "Cheolsan-dong, Gwangmyeong-si, Gyeonggi, South Korea (\ucca0\uc0b0\ub3d9 \uacbd\uae30)", "Lat": 37.476221, "Lon": 126.86981, "AQI": 147.0, "Last_Updated": "2026-03-10T01:00:00+09:00"}, "geometry": {"type": "Point", "coordinates": [126.86981, 37.476221]}}, {"type": "Feature", "properties": {"fid": 6801, "ID": 3938, "Name": "Simgok-dong, Bucheon-si, Gyeonggi, South Korea (\uc18c\uc0ac\ubcf8\ub3d9 \uacbd\uae30)", "Lat": 37.4800328, "Lon": 126.7999056, "AQI": 44.0, "Last_Updated": "2026-03-10T01:00:00+09:00"}, "geometry": {"type": "Point", "coordinates": [126.799906, 37.480033]}}, {"type": "Feature", "properties": {"fid": 6705, "ID": 4540, "Name": "Songhyeon, Incheon, South Korea (\uc1a1\ud604 \uc778\ucc9c)", "Lat": 37.480664, "Lon": 126.63582, "AQI": 91.0, "Last_Updated": "2026-03-10T01:00:00+09:00"}, "geometry": {"type": "Point", "coordinates": [126.63582, 37.480664]}}, {"type": "Feature", "properties": {"fid": 6690, "ID": 1678, "Name": "Dongjak-gu, Seoul, South Korea (\ub3d9\uc791\uad6c \uc11c\uc6b8)", "Lat": 37.480989, "Lon": 126.971547, "AQI": 139.0, "Last_Updated": "2026-03-10T01:00:00+09:00"}, "geometry": {"type": "Point", "coordinates": [126.971547, 37.480989]}}, {"type": "Feature", "properties": {"fid": 6817, "ID": 1671, "Name": "Gwanak-gu, Seoul, South Korea (\uad00\uc545\uad6c \uc11c\uc6b8)", "Lat": 37.488242, "Lon": 126.927089, "AQI": 114.0, "Last_Updated": "2026-03-10T01:00:00+09:00"}, "geometry": {"type": "Point", "coordinates": [126.927089, 37.488242]}}, {"type": "Feature", "properties": {"fid": 6841, "ID": 1727, "Name": "Bupyeong, Bupyeong-gu, Incheon, South Korea (\ubd80\ud3c9 \uc778\ucc9c)", "Lat": 37.4903861, "Lon": 126.7236421, "AQI": 82.0, "Last_Updated": "2026-03-10T01:00:00+09:00"}, "geometry": {"type": "Point", "coordinates": [126.723642, 37.490386]}}, {"type": "Feature", "properties": {"fid": 6679, "ID": 4495, "Name": "Dongjakdaero Jungangcharo, Seoul, South Korea (\ub3d9\uc791\ub300\ub85c \uc911\uc559\ucc28\ub85c \uc11c\uc6b8)", "Lat": 37.492107, "Lon": 126.983245, "AQI": 127.0, "Last_Updated": "2026-03-10T01:00:00+09:00"}, "geometry": {"type": "Point", "coordinates": [126.983245, 37.492107]}}, {"type": "Feature", "properties": {"fid": 6663, "ID": 1673, "Name": "Guro-gu, Seoul, South Korea (\uad6c\ub85c\uad6c \uc11c\uc6b8)", "Lat": 37.498498, "Lon": 126.889692, "AQI": 97.0, "Last_Updated": "2026-03-10T01:00:00+09:00"}, "geometry": {"type": "Point", "coordinates": [126.889692, 37.498498]}}, {"type": "Feature", "properties": {"fid": 6670, "ID": 13550, "Name": "Jungbong, Incheon, South Korea (\uc911\ubd09 \uc778\ucc9c)", "Lat": 37.50353, "Lon": 126.64794, "AQI": 85.0, "Last_Updated": "2026-03-10T01:00:00+09:00"}, "geometry": {"type": "Point", "coordinates": [126.64794, 37.50353]}}, {"type": "Feature", "properties": {"fid": 6809, "ID": 1681, "Name": "Seocho-gu, Seoul, South Korea (\uc11c\ucd08\uad6c \uc11c\uc6b8)", "Lat": 37.504547, "Lon": 126.994611, "AQI": 132.0, "Last_Updated": "2026-03-10T01:00:00+09:00"}, "geometry": {"type": "Point", "coordinates": [126.994611, 37.504547]}}, {"type": "Feature", "properties": {"fid": 6642, "ID": 12552, "Name": "Samsan, Incheon, South Korea (\uc0bc\uc0b0 \uc778\ucc9c)", "Lat": 37.51279, "Lon": 126.73643, "AQI": 95.0, "Last_Updated": "2026-03-10T01:00:00+09:00"}, "geometry": {"type": "Point", "coordinates": [126.73643, 37.51279]}}, {"type": "Feature", "properties": {"fid": 6861, "ID": 1708, "Name": "Anyang, Anyang-si, Gyeonggi, South Korea (\uc548\uc5912\ub3d9 \uacbd\uae30)", "Lat": 37.4051, "Lon": 126.9178, "AQI": null, "Last_Updated": "2026-03-10T01:00:00+09:00"}, "geometry": {"type": "Point", "coordinates": [126.9178, 37.4051]}}, {"type": "Feature", "properties": {"fid": 6863, "ID": 1695, "Name": "Sohadong, Gwangmyeong-si, Gyeonggi, South Korea (\uc18c\ud558\ub3d9 \uacbd\uae30)", "Lat": 37.452158, "Lon": 126.884909, "AQI": 129.0, "Last_Updated": "2026-03-10T01:00:00+09:00"}, "geometry": {"type": "Point", "coordinates": [126.884909, 37.452158]}}, {"type": "Feature", "properties": {"fid": 6869, "ID": 11359, "Name": "Siheung-daero, Seoul, South Korea (\uc2dc\ud765\ub300\ub85c \uc11c\uc6b8)", "Lat": 37.474899, "Lon": 126.898657, "AQI": 114.0, "Last_Updated": "2026-03-10T01:00:00+09:00"}, "geometry": {"type": "Point", "coordinates": [126.898657, 37.474899]}}, {"type": "Feature", "properties": {"fid": 6870, "ID": 5511, "Name": "Bucheon (\uc778\ucc9c\uc2dc)", "Lat": 37.5034138, "Lon": 126.7660309, "AQI": 107.0, "Last_Updated": "2026-03-10T01:00:00+09:00"}, "geometry": {"type": "Point", "coordinates": [126.766031, 37.503414]}}, {"type": "Feature", "properties": {"fid": 6879, "ID": 5516, "Name": "Anyang-si (\uc548\uc591\uc2dc)", "Lat": 37.3942527, "Lon": 126.9568209, "AQI": 129.0, "Last_Updated": "2026-03-10T01:00:00+09:00"}, "geometry": {"type": "Point", "coordinates": [126.956821, 37.394253]}}, {"type": "Feature", "properties": {"fid": 6892, "ID": 13553, "Name": "Yeongjong, Incheon, South Korea (\uc601\uc885 \uc778\ucc9c)", "Lat": 37.494835, "Lon": 126.563919, "AQI": 76.0, "Last_Updated": "2026-03-10T01:00:00+09:00"}, "geometry": {"type": "Point", "coordinates": [126.563919, 37.494835]}}, {"type": "Feature", "properties": {"fid": 6902, "ID": 1674, "Name": "Geumcheon-gu, Seoul, South Korea (\uae08\ucc9c\uad6c \uc11c\uc6b8)", "Lat": 37.452386, "Lon": 126.908333, "AQI": 124.0, "Last_Updated": "2026-03-10T01:00:00+09:00"}, "geometry": {"type": "Point", "coordinates": [126.908333, 37.452386]}}, {"type": "Feature", "properties": {"fid": 6903, "ID": 4539, "Name": "Bupyeongyeok, Incheon, South Korea (\ubd80\ud3c9\uc5ed \uc778\ucc9c)", "Lat": 37.482874, "Lon": 126.704943, "AQI": 107.0, "Last_Updated": "2026-03-10T01:00:00+09:00"}, "geometry": {"type": "Point", "coordinates": [126.704943, 37.482874]}}, {"type": "Feature", "properties": {"fid": 6904, "ID": 3973, "Name": "Seongnam, Seo-gu, Incheon, South Korea (\uc11d\ub0a8 \uc778\ucc9c)", "Lat": 37.502778, "Lon": 126.674722, "AQI": 91.0, "Last_Updated": "2026-03-10T01:00:00+09:00"}, "geometry": {"type": "Point", "coordinates": [126.674722, 37.502778]}}, {"type": "Feature", "properties": {"fid": 6911, "ID": 12993, "Name": "Mokgam-dong, Gyeonggi, South Korea (\ubaa9\uac10\ub3d9 \uacbd\uae30)", "Lat": 37.3857, "Lon": 126.8619, "AQI": 142.0, "Last_Updated": "2026-03-10T01:00:00+09:00"}, "geometry": {"type": "Point", "coordinates": [126.8619, 37.3857]}}, {"type": "Feature", "properties": {"fid": 6753, "ID": 4497, "Name": "Yangjaejungangcharo, Seoul, South Korea (\uac15\ub0a8\ub300\ub85c \uc11c\uc6b8)", "Lat": 37.482867, "Lon": 127.035621, "AQI": 127.0, "Last_Updated": "2026-03-10T01:00:00+09:00"}, "geometry": {"type": "Point", "coordinates": [127.035621, 37.482867]}}, {"type": "Feature", "properties": {"fid": 6744, "ID": 1684, "Name": "Songpa-gu, Seoul, South Korea (\uc1a1\ud30c\uad6c \uc11c\uc6b8)", "Lat": 37.502685, "Lon": 127.092385, "AQI": 151.0, "Last_Updated": "2026-03-10T01:00:00+09:00"}, "geometry": {"type": "Point", "coordinates": [127.092385, 37.502685]}}, {"type": "Feature", "properties": {"fid": 6751, "ID": 4496, "Name": "Sinsa-dong, Seoul, South Korea (\ub3c4\uc0b0\ub300\ub85c \uc11c\uc6b8)", "Lat": 37.516083, "Lon": 127.019694, "AQI": null, "Last_Updated": "2026-03-10T01:00:00+09:00"}, "geometry": {"type": "Point", "coordinates": [127.019694, 37.516083]}}, {"type": "Feature", "properties": {"fid": 6921, "ID": 1667, "Name": "Gangnam-gu, Seoul, South Korea (\uac15\ub0a8\uad6c \uc11c\uc6b8)", "Lat": 37.5175623, "Lon": 127.0472893, "AQI": 151.0, "Last_Updated": "2026-03-10T01:00:00+09:00"}, "geometry": {"type": "Point", "coordinates": [127.047289, 37.517562]}}, {"type": "Feature", "properties": {"fid": 6686, "ID": 4498, "Name": "Gil-dong, Seoul, South Korea (\ucc9c\ud638\ub300\ub85c \uc11c\uc6b8)", "Lat": 37.534035, "Lon": 127.139172, "AQI": 137.0, "Last_Updated": "2026-03-10T01:00:00+09:00"}, "geometry": {"type": "Point", "coordinates": [127.139172, 37.534035]}}, {"type": "Feature", "properties": {"fid": 6641, "ID": 1682, "Name": "Seongdong-gu, Seoul, South Korea (\uc131\ub3d9\uad6c \uc11c\uc6b8)", "Lat": 37.542036, "Lon": 127.049685, "AQI": 129.0, "Last_Updated": "2026-03-10T01:00:00+09:00"}, "geometry": {"type": "Point", "coordinates": [127.049685, 37.542036]}}, {"type": "Feature", "properties": {"fid": 6910, "ID": 1672, "Name": "Gwangjin-gu, Seoul, South Korea (\uad11\uc9c4\uad6c \uc11c\uc6b8)", "Lat": 37.544639, "Lon": 127.095706, "AQI": 144.0, "Last_Updated": "2026-03-10T01:00:00+09:00"}, "geometry": {"type": "Point", "coordinates": [127.095706, 37.544639]}}, {"type": "Feature", "properties": {"fid": 6823, "ID": 1668, "Name": "Gangdong-gu, Seoul, South Korea (\uac15\ub3d9\uad6c \uc11c\uc6b8)", "Lat": 37.545089, "Lon": 127.136806, "AQI": 158.0, "Last_Updated": "2026-03-10T01:00:00+09:00"}, "geometry": {"type": "Point", "coordinates": [127.136806, 37.545089]}}, {"type": "Feature", "properties": {"fid": 6767, "ID": 1677, "Name": "Dongdaemun-gu, Seoul, South Korea (\ub3d9\ub300\ubb38\uad6c \uc11c\uc6b8)", "Lat": 37.576169, "Lon": 127.029642, "AQI": 139.0, "Last_Updated": "2026-03-10T01:00:00+09:00"}, "geometry": {"type": "Point", "coordinates": [127.029642, 37.576169]}}, {"type": "Feature", "properties": {"fid": 6691, "ID": 4490, "Name": "Cheongryang-ri, Seoul, South Korea (\ud64d\ub989\ub85c \uc11c\uc6b8)", "Lat": 37.580167, "Lon": 127.044856, "AQI": 129.0, "Last_Updated": "2026-03-10T01:00:00+09:00"}, "geometry": {"type": "Point", "coordinates": [127.044856, 37.580167]}}, {"type": "Feature", "properties": {"fid": 6792, "ID": 1691, "Name": "Jungnang-gu, Seoul, South Korea (\uc911\ub791\uad6c \uc11c\uc6b8)", "Lat": 37.584953, "Lon": 127.094283, "AQI": 155.0, "Last_Updated": "2026-03-10T01:00:00+09:00"}, "geometry": {"type": "Point", "coordinates": [127.094283, 37.584953]}}, {"type": "Feature", "properties": {"fid": 6828, "ID": 1697, "Name": "Gyomun-dong, Guri-si, Gyeonggi, South Korea (\uad50\ubb38\ub3d9 \uacbd\uae30)", "Lat": 37.594755, "Lon": 127.130141, "AQI": 137.0, "Last_Updated": "2026-03-10T01:00:00+09:00"}, "geometry": {"type": "Point", "coordinates": [127.130141, 37.594755]}}, {"type": "Feature", "properties": {"fid": 6764, "ID": 4491, "Name": "Naebusunhwanro, Seoul, South Korea (\uc815\ub989\ub85c \uc11c\uc6b8)", "Lat": 37.603593, "Lon": 127.026007, "AQI": 151.0, "Last_Updated": "2026-03-10T01:00:00+09:00"}, "geometry": {"type": "Point", "coordinates": [127.026007, 37.603593]}}, {"type": "Feature", "properties": {"fid": 6721, "ID": 12990, "Name": "Gyeongchun-ro, Gyeonggi, South Korea (\uacbd\ucd98\ub85c \uacbd\uae30)", "Lat": 37.609158, "Lon": 127.163109, "AQI": 154.0, "Last_Updated": "2026-03-10T01:00:00+09:00"}, "geometry": {"type": "Point", "coordinates": [127.163109, 37.609158]}}, {"type": "Feature", "properties": {"fid": 6722, "ID": 4499, "Name": "Taereung, Seoul, South Korea (\ud654\ub791\ub85c \uc11c\uc6b8)", "Lat": 37.617315, "Lon": 127.07512, "AQI": 154.0, "Last_Updated": "2026-03-10T01:00:00+09:00"}, "geometry": {"type": "Point", "coordinates": [127.07512, 37.617315]}}, {"type": "Feature", "properties": {"fid": 6698, "ID": 3933, "Name": "Donggu-dong, Guri-si, Gyeonggi, South Korea (\ub3d9\uad6c\ub3d9 \uacbd\uae30)", "Lat": 37.6187, "Lon": 127.1383, "AQI": 152.0, "Last_Updated": "2026-03-10T01:00:00+09:00"}, "geometry": {"type": "Point", "coordinates": [127.1383, 37.6187]}}, {"type": "Feature", "properties": {"fid": 6916, "ID": 1669, "Name": "Gangbuk-gu, Seoul, South Korea (\uac15\ubd81\uad6c \uc11c\uc6b8)", "Lat": 37.64793, "Lon": 127.011952, "AQI": 147.0, "Last_Updated": "2026-03-10T01:00:00+09:00"}, "geometry": {"type": "Point", "coordinates": [127.011952, 37.64793]}}, {"type": "Feature", "properties": {"fid": 6730, "ID": 11364, "Name": "Byeolnae-dong, Gyeonggi, South Korea (\ubcc4\ub0b4\ub3d9 \uacbd\uae30)", "Lat": 37.652924, "Lon": 127.11586, "AQI": 153.0, "Last_Updated": "2026-03-10T01:00:00+09:00"}, "geometry": {"type": "Point", "coordinates": [127.11586, 37.652924]}}, {"type": "Feature", "properties": {"fid": 6629, "ID": 1676, "Name": "Dobong-gu, Seoul, South Korea (\ub3c4\ubd09\uad6c \uc11c\uc6b8)", "Lat": 37.654278, "Lon": 127.029333, "AQI": 137.0, "Last_Updated": "2026-03-10T01:00:00+09:00"}, "geometry": {"type": "Point", "coordinates": [127.029333, 37.654278]}}, {"type": "Feature", "properties": {"fid": 6802, "ID": 1675, "Name": "Nowon-gu, Seoul, South Korea (\ub178\uc6d0\uad6c \uc11c\uc6b8)", "Lat": 37.657415, "Lon": 127.067876, "AQI": 157.0, "Last_Updated": "2026-03-10T01:00:00+09:00"}, "geometry": {"type": "Point", "coordinates": [127.067876, 37.657415]}}, {"type": "Feature", "properties": {"fid": 6665, "ID": 1807, "Name": "Uijeongbu, Uijeongbu-si, Gyeonggi, South Korea (\uc758\uc815\ubd80\ub3d9 \uacbd\uae30)", "Lat": 37.735582, "Lon": 127.040421, "AQI": 142.0, "Last_Updated": "2026-03-10T01:00:00+09:00"}, "geometry": {"type": "Point", "coordinates": [127.040421, 37.735582]}}, {"type": "Feature", "properties": {"fid": 6805, "ID": 3965, "Name": "Uijeongbu, Uijeongbu-si, Gyeonggi, South Korea (\uc758\uc815\ubd801\ub3d9 \uacbd\uae30)", "Lat": 37.746355, "Lon": 127.047652, "AQI": 147.0, "Last_Updated": "2026-03-10T01:00:00+09:00"}, "geometry": {"type": "Point", "coordinates": [127.047652, 37.746355]}}, {"type": "Feature", "properties": {"fid": 6736, "ID": 13537, "Name": "Songsan3-dong, Gyeonggi, South Korea (\uc1a1\uc0b03\ub3d9 \uacbd\uae30)", "Lat": 37.7481, "Lon": 127.106, "AQI": 127.0, "Last_Updated": "2026-03-10T01:00:00+09:00"}, "geometry": {"type": "Point", "coordinates": [127.106, 37.7481]}}, {"type": "Feature", "properties": {"fid": 6650, "ID": 10459, "Name": "Go-eup, Gyeonggi, South Korea (\uace0\uc74d \uacbd\uae30)", "Lat": 37.7919, "Lon": 127.0847, "AQI": 147.0, "Last_Updated": "2026-03-10T01:00:00+09:00"}, "geometry": {"type": "Point", "coordinates": [127.0847, 37.7919]}}, {"type": "Feature", "properties": {"fid": 6858, "ID": 3961, "Name": "Gwangjeok-myeon, Yangju-si, Gyeonggi, South Korea (\ubc31\uc11d\uc74d \uacbd\uae30)", "Lat": 37.79239, "Lon": 126.987168, "AQI": 132.0, "Last_Updated": "2026-03-10T01:00:00+09:00"}, "geometry": {"type": "Point", "coordinates": [126.987168, 37.79239]}}, {"type": "Feature", "properties": {"fid": 6883, "ID": 1719, "Name": "Seondan-dong, Pocheon-si, Gyeonggi, South Korea (\uc120\ub2e8\ub3d9 \uacbd\uae30)", "Lat": 37.8535, "Lon": 127.1592, "AQI": 157.0, "Last_Updated": "2026-03-10T01:00:00+09:00"}, "geometry": {"type": "Point", "coordinates": [127.1592, 37.8535]}}, {"type": "Feature", "properties": {"fid": 6922, "ID": 1701, "Name": "Bosan-dong, Dongducheon-si, Gyeonggi, South Korea (\ubcf4\uc0b0\ub3d9 \uacbd\uae30)", "Lat": 37.917603, "Lon": 127.061291, "AQI": 151.0, "Last_Updated": "2026-03-10T01:00:00+09:00"}, "geometry": {"type": "Point", "coordinates": [127.061291, 37.917603]}}, {"type": "Feature", "properties": {"fid": 6990, "ID": 13960, "Name": "Jeongok, Gyeonggi, South Korea (\uc804\uace1 \uacbd\uae30)", "Lat": 38.013429, "Lon": 127.034161, "AQI": 154.0, "Last_Updated": "2026-03-10T01:00:00+09:00"}, "geometry": {"type": "Point", "coordinates": [127.034161, 38.013429]}}, {"type": "Feature", "properties": {"fid": 6986, "ID": 1712, "Name": "Yeoncheon-eup, Yeoncheon-gun, Gyeonggi, South Korea (\uc5f0\ucc9c \uacbd\uae30)", "Lat": 38.0964, "Lon": 127.0763, "AQI": 151.0, "Last_Updated": "2026-03-10T01:00:00+09:00"}, "geometry": {"type": "Point", "coordinates": [127.0763, 38.0964]}}, {"type": "Feature", "properties": {"fid": 6989, "ID": 13539, "Name": "Yeoncheon(DMZ), Gyeonggi, South Korea (\uc5f0\ucc9c(DMZ) \uacbd\uae30)", "Lat": 38.129569, "Lon": 126.973711, "AQI": 160.0, "Last_Updated": "2026-03-10T01:00:00+09:00"}, "geometry": {"type": "Point", "coordinates": [126.973711, 38.129569]}}, {"type": "Feature", "properties": {"fid": 6988, "ID": 13568, "Name": "Cheorwon(DMZ), Seoul, South Korea (\ucca0\uc6d0(DMZ) \uac15\uc6d0)", "Lat": 38.290859, "Lon": 127.179801, "AQI": 156.0, "Last_Updated": "2026-03-10T01:00:00+09:00"}, "geometry": {"type": "Point", "coordinates": [127.179801, 38.290859]}}, {"type": "Feature", "properties": {"fid": 6820, "ID": 1746, "Name": ", Cheongwon-gun, Chungbuk, South Korea (\uc624\ucc3d\uc74d \ucda9\ubd81)", "Lat": 36.709057, "Lon": 127.421992, "AQI": 107.0, "Last_Updated": "2026-03-10T01:00:00+09:00"}, "geometry": {"type": "Point", "coordinates": [127.421992, 36.709057]}}, {"type": "Feature", "properties": {"fid": 6780, "ID": 4535, "Name": "Cheongcheon-myeon, Chungbuk, South Korea (\uccad\ucc9c\uba74 \ucda9\ubd81)", "Lat": 36.730926, "Lon": 127.804682, "AQI": 153.0, "Last_Updated": "2026-03-10T01:00:00+09:00"}, "geometry": {"type": "Point", "coordinates": [127.804682, 36.730926]}}, {"type": "Feature", "properties": {"fid": 6743, "ID": 14015, "Name": "Songak-myeon, Chungnam, South Korea (\uc1a1\uc545\uba74 \ucda9\ub0a8)", "Lat": 36.731582, "Lon": 127.008906, "AQI": 89.0, "Last_Updated": "2026-03-10T01:00:00+09:00"}, "geometry": {"type": "Point", "coordinates": [127.008906, 36.731582]}}, {"type": "Feature", "properties": {"fid": 6799, "ID": 12966, "Name": "Sinbang-dong, Chungnam, South Korea (\uc2e0\ubc29\ub3d9 \ucda9\ub0a8)", "Lat": 36.78279, "Lon": 127.120668, "AQI": 93.0, "Last_Updated": "2026-03-10T01:00:00+09:00"}, "geometry": {"type": "Point", "coordinates": [127.120668, 36.78279]}}, {"type": "Feature", "properties": {"fid": 6671, "ID": 1738, "Name": "Mojong-dong, Asan-si, Chungnam, South Korea (\ubaa8\uc885\ub3d9 \ucda9\ub0a8)", "Lat": 36.782917, "Lon": 127.0145, "AQI": 122.0, "Last_Updated": "2026-03-10T01:00:00+09:00"}, "geometry": {"type": "Point", "coordinates": [127.0145, 36.782917]}}, {"type": "Feature", "properties": {"fid": 6748, "ID": 10477, "Name": "Jeungpyeong-eup, Chungbuk, South Korea (\uc99d\ud3c9\uc74d \ucda9\ubd81)", "Lat": 36.792185, "Lon": 127.587032, "AQI": 112.0, "Last_Updated": "2026-03-10T01:00:00+09:00"}, "geometry": {"type": "Point", "coordinates": [127.587032, 36.792185]}}, {"type": "Feature", "properties": {"fid": 6660, "ID": 11497, "Name": "Goesan-eup, Chungbuk, South Korea (\uad34\uc0b0\uc74d \ucda9\ubd81)", "Lat": 36.8075573, "Lon": 127.789237, "AQI": 154.0, "Last_Updated": "2026-03-10T01:00:00+09:00"}, "geometry": {"type": "Point", "coordinates": [127.789237, 36.807557]}}, {"type": "Feature", "properties": {"fid": 6843, "ID": 14020, "Name": "Doan-myeon, Chungbuk, South Korea (\ub3c4\uc548\uba74 \ucda9\ubd81)", "Lat": 36.813261, "Lon": 127.615808, "AQI": 152.0, "Last_Updated": "2026-03-10T01:00:00+09:00"}, "geometry": {"type": "Point", "coordinates": [127.615808, 36.813261]}}, {"type": "Feature", "properties": {"fid": 6742, "ID": 5518, "Name": "Cheonan (\ucc9c\uc548\uc2dc)", "Lat": 36.815129, "Lon": 127.1138939, "AQI": 104.0, "Last_Updated": "2026-03-10T01:00:00+09:00"}, "geometry": {"type": "Point", "coordinates": [127.113894, 36.815129]}}, {"type": "Feature", "properties": {"fid": 6788, "ID": 3981, "Name": "Baekseong-dong, Cheonan-si, Chungnam, South Korea (\ubc31\uc11d\ub3d9 \ucda9\ub0a8)", "Lat": 36.825139, "Lon": 127.110639, "AQI": 104.0, "Last_Updated": "2026-03-10T01:00:00+09:00"}, "geometry": {"type": "Point", "coordinates": [127.110639, 36.825139]}}, {"type": "Feature", "properties": {"fid": 6709, "ID": 4529, "Name": "Seongseong-dong, Chungnam, South Korea (\uc131\uc131\ub3d9 \ucda9\ub0a8)", "Lat": 36.839225, "Lon": 127.137578, "AQI": 95.0, "Last_Updated": "2026-03-10T01:00:00+09:00"}, "geometry": {"type": "Point", "coordinates": [127.137578, 36.839225]}}, {"type": "Feature", "properties": {"fid": 6812, "ID": 9011, "Name": "Jincheon-eup, Chungbuk, South Korea (\uc9c4\ucc9c\uc74d \ucda9\ubd81)", "Lat": 36.8550153, "Lon": 127.4413124, "AQI": 112.0, "Last_Updated": "2026-03-10T01:00:00+09:00"}, "geometry": {"type": "Point", "coordinates": [127.441312, 36.855015]}}, {"type": "Feature", "properties": {"fid": 6836, "ID": 10466, "Name": "Seonggeoeup, Chungnam, South Korea (\uc131\uac70\uc74d \ucda9\ub0a8)", "Lat": 36.883435, "Lon": 127.207376, "AQI": 151.0, "Last_Updated": "2026-03-10T01:00:00+09:00"}, "geometry": {"type": "Point", "coordinates": [127.207376, 36.883435]}}, {"type": "Feature", "properties": {"fid": 6797, "ID": 12952, "Name": "Deoksan-eup, Chungbuk, South Korea (\ub355\uc0b0\uc74d \ucda9\ubd81)", "Lat": 36.904796, "Lon": 127.544593, "AQI": 151.0, "Last_Updated": "2026-03-10T01:00:00+09:00"}, "geometry": {"type": "Point", "coordinates": [127.544593, 36.904796]}}, {"type": "Feature", "properties": {"fid": 6826, "ID": 12945, "Name": "Soi-myeon, Chungbuk, South Korea (\uc18c\uc774\uba74 \ucda9\ubd81)", "Lat": 36.923449, "Lon": 127.75545, "AQI": 153.0, "Last_Updated": "2026-03-10T01:00:00+09:00"}, "geometry": {"type": "Point", "coordinates": [127.75545, 36.923449]}}, {"type": "Feature", "properties": {"fid": 6718, "ID": 11498, "Name": "Eumseong-eup, Chungbuk, South Korea (\uc74c\uc131\uc74d \ucda9\ubd81)", "Lat": 36.928577, "Lon": 127.6886158, "AQI": 151.0, "Last_Updated": "2026-03-10T01:00:00+09:00"}, "geometry": {"type": "Point", "coordinates": [127.688616, 36.928577]}}, {"type": "Feature", "properties": {"fid": 6726, "ID": 1748, "Name": "Hoam-dong, Chungju-si, Chungbuk, South Korea (\ud638\uc554\ub3d9 \ucda9\ubd81)", "Lat": 36.964567, "Lon": 127.926158, "AQI": 155.0, "Last_Updated": "2026-03-10T01:00:00+09:00"}, "geometry": {"type": "Point", "coordinates": [127.926158, 36.964567]}}, {"type": "Feature", "properties": {"fid": 6749, "ID": 1718, "Name": "Bijeon-dong, Pyeongtaek-si, Gyeonggi, South Korea (\ube44\uc804\ub3d9 \uacbd\uae30)", "Lat": 36.9913, "Lon": 127.1126, "AQI": 139.0, "Last_Updated": "2026-03-10T01:00:00+09:00"}, "geometry": {"type": "Point", "coordinates": [127.1126, 36.9913]}}, {"type": "Feature", "properties": {"fid": 6636, "ID": 12985, "Name": "Gongdo-eup, Gyeonggi, South Korea (\uacf5\ub3c4\uc74d \uacbd\uae30)", "Lat": 37.0010225, "Lon": 127.1724925, "AQI": 117.0, "Last_Updated": "2026-03-10T01:00:00+09:00"}, "geometry": {"type": "Point", "coordinates": [127.172493, 37.001022]}}, {"type": "Feature", "properties": {"fid": 6703, "ID": 1707, "Name": "Bongsan-dong, Ansung-si, Gyeonggi, South Korea (\ubd09\uc0b0\ub3d9 \uacbd\uae30)", "Lat": 37.007863, "Lon": 127.279856, "AQI": 129.0, "Last_Updated": "2026-03-10T01:00:00+09:00"}, "geometry": {"type": "Point", "coordinates": [127.279856, 37.007863]}}, {"type": "Feature", "properties": {"fid": 6676, "ID": 13532, "Name": "Godeok-myeon, Gyeonggi, South Korea (\uace0\ub355\uba74 \uacbd\uae30)", "Lat": 37.05311, "Lon": 127.046172, "AQI": 151.0, "Last_Updated": "2026-03-10T01:00:00+09:00"}, "geometry": {"type": "Point", "coordinates": [127.046172, 37.05311]}}, {"type": "Feature", "properties": {"fid": 6740, "ID": 12992, "Name": "Juksan-myeon, Gyeonggi, South Korea (\uc8fd\uc0b0\uba74 \uacbd\uae30)", "Lat": 37.0746, "Lon": 127.4244, "AQI": 149.0, "Last_Updated": "2026-03-10T01:00:00+09:00"}, "geometry": {"type": "Point", "coordinates": [127.4244, 37.0746]}}, {"type": "Feature", "properties": {"fid": 6844, "ID": 11350, "Name": "Songbuk-dong, Gyeonggi, South Korea (\uc1a1\ubd81\ub3d9 \uacbd\uae30)", "Lat": 37.081564, "Lon": 127.060117, "AQI": 144.0, "Last_Updated": "2026-03-10T01:00:00+09:00"}, "geometry": {"type": "Point", "coordinates": [127.060117, 37.081564]}}, {"type": "Feature", "properties": {"fid": 6853, "ID": 1739, "Name": "Seonghwang-dong, Cheonan-si, Chungnam, South Korea (\uc131\ud669\ub3d9 \ucda9\ub0a8)", "Lat": 36.814171, "Lon": 127.152144, "AQI": 97.0, "Last_Updated": "2026-03-10T01:00:00+09:00"}, "geometry": {"type": "Point", "coordinates": [127.152144, 36.814171]}}, {"type": "Feature", "properties": {"fid": 6887, "ID": 12948, "Name": "Salmi-myeon, Chungbuk, South Korea (\uc0b4\ubbf8\uba74 \ucda9\ubd81)", "Lat": 36.905231, "Lon": 127.964141, "AQI": 155.0, "Last_Updated": "2026-03-10T01:00:00+09:00"}, "geometry": {"type": "Point", "coordinates": [127.964141, 36.905231]}}, {"type": "Feature", "properties": {"fid": 6888, "ID": 10473, "Name": "Dunpo-myeon, Chungnam, South Korea (\ub454\ud3ec\uba74 \ucda9\ub0a8)", "Lat": 36.914275, "Lon": 127.059597, "AQI": 127.0, "Last_Updated": "2026-03-10T01:00:00+09:00"}, "geometry": {"type": "Point", "coordinates": [127.059597, 36.914275]}}, {"type": "Feature", "properties": {"fid": 6901, "ID": 10464, "Name": "Baebang-eup, Chungnam, South Korea (\ubc30\ubc29\uc74d \ucda9\ub0a8)", "Lat": 36.7738, "Lon": 127.053851, "AQI": 112.0, "Last_Updated": "2026-03-10T01:00:00+09:00"}, "geometry": {"type": "Point", "coordinates": [127.053851, 36.7738]}}, {"type": "Feature", "properties": {"fid": 6912, "ID": 12947, "Name": "Jungangtap-myeon, Chungbuk, South Korea (\uc911\uc559\ud0d1\uba74 \ucda9\ubd81)", "Lat": 37.010228, "Lon": 127.81517, "AQI": 151.0, "Last_Updated": "2026-03-10T01:00:00+09:00"}, "geometry": {"type": "Point", "coordinates": [127.81517, 37.010228]}}, {"type": "Feature", "properties": {"fid": 6913, "ID": 9553, "Name": "Geumwang, Chungbuk, South Korea (\uae08\uc655 \ucda9\ubd81)", "Lat": 36.994135, "Lon": 127.604512, "AQI": 144.0, "Last_Updated": "2026-03-10T01:00:00+09:00"}, "geometry": {"type": "Point", "coordinates": [127.604512, 36.994135]}}, {"type": "Feature", "properties": {"fid": 6914, "ID": 14024, "Name": "Jangjae-ri, Chungnam, South Korea (\uc7a5\uc7ac\ub9ac \ucda9\ub0a8)", "Lat": 36.784325, "Lon": 127.099992, "AQI": 99.0, "Last_Updated": "2026-03-10T01:00:00+09:00"}, "geometry": {"type": "Point", "coordinates": [127.099992, 36.784325]}}, {"type": "Feature", "properties": {"fid": 6918, "ID": 3988, "Name": "Chilgeum-dong, Chungju-si, Chungbuk, South Korea (\uce60\uae08\ub3d9 \ucda9\ubd81)", "Lat": 36.982086, "Lon": 127.919206, "AQI": 156.0, "Last_Updated": "2026-03-10T01:00:00+09:00"}, "geometry": {"type": "Point", "coordinates": [127.919206, 36.982086]}}, {"type": "Feature", "properties": {"fid": 6934, "ID": 1744, "Name": "Maepo-eup, Dannyang-gun, Chungbuk, South Korea (\ub9e4\ud3ec\uc74d \ucda9\ubd81)", "Lat": 37.0334, "Lon": 128.2957, "AQI": 119.0, "Last_Updated": "2026-03-10T01:00:00+09:00"}, "geometry": {"type": "Point", "coordinates": [128.2957, 37.0334]}}, {"type": "Feature", "properties": {"fid": 6935, "ID": 12954, "Name": "Danseong-myeon, Chungbuk, South Korea (\ub2e8\uc131\uba74 \ucda9\ubd81)", "Lat": 36.93885, "Lon": 128.32028, "AQI": 99.0, "Last_Updated": "2026-03-10T01:00:00+09:00"}, "geometry": {"type": "Point", "coordinates": [128.32028, 36.93885]}}, {"type": "Feature", "properties": {"fid": 6938, "ID": 14007, "Name": "Bonghwaguncheong, Gyeongbuk, South Korea (\ubd09\ud654\uad70\uccad \uacbd\ubd81)", "Lat": 36.8924141, "Lon": 128.7316017, "AQI": 91.0, "Last_Updated": "2026-03-10T01:00:00+09:00"}, "geometry": {"type": "Point", "coordinates": [128.731602, 36.892414]}}, {"type": "Feature", "properties": {"fid": 6940, "ID": 1810, "Name": "Hyucheon, Yeongju-si, Gyeongbuk, South Korea (\uac00\ud765\ub3d9 \uacbd\ubd81)", "Lat": 36.82066, "Lon": 128.61209, "AQI": 147.0, "Last_Updated": "2026-03-10T01:00:00+09:00"}, "geometry": {"type": "Point", "coordinates": [128.61209, 36.82066]}}, {"type": "Feature", "properties": {"fid": 6941, "ID": 13956, "Name": "Yeongju-dong, Gyeongbuk, South Korea (\uc601\uc8fc\ub3d9 \uacbd\ubd81)", "Lat": 36.82863, "Lon": 128.62621, "AQI": 152.0, "Last_Updated": "2026-03-10T01:00:00+09:00"}, "geometry": {"type": "Point", "coordinates": [128.62621, 36.82863]}}, {"type": "Feature", "properties": {"fid": 6942, "ID": 13249, "Name": "Cheongpung-myeon, Chungbuk, South Korea (\uccad\ud48d\uba74 \ucda9\ubd81)", "Lat": 37.0, "Lon": 128.1675, "AQI": null, "Last_Updated": "2026-03-09T13:00:00+09:00"}, "geometry": {"type": "Point", "coordinates": [128.1675, 37.0]}}, {"type": "Feature", "properties": {"fid": 6951, "ID": 11893, "Name": "Seokpo-myeon, Gyeongbuk, South Korea (\uc11d\ud3ec\uba74 \uacbd\ubd81)", "Lat": 37.0485072, "Lon": 129.065288, "AQI": 61.0, "Last_Updated": "2026-03-10T01:00:00+09:00"}, "geometry": {"type": "Point", "coordinates": [129.065288, 37.048507]}}, {"type": "Feature", "properties": {"fid": 6954, "ID": 11502, "Name": "Uljingun, Gyeongbuk, South Korea (\uc6b8\uc9c4\uad70 \uacbd\ubd81)", "Lat": 36.9973684, "Lon": 129.4027221, "AQI": 57.0, "Last_Updated": "2026-03-10T01:00:00+09:00"}, "geometry": {"type": "Point", "coordinates": [129.402722, 36.997368]}}, {"type": "Feature", "properties": {"fid": 6970, "ID": 12953, "Name": "Danyang-eup, Chungbuk, South Korea (\ub2e8\uc591\uc74d \ucda9\ubd81)", "Lat": 36.987924, "Lon": 128.364813, "AQI": 107.0, "Last_Updated": "2026-03-10T01:00:00+09:00"}, "geometry": {"type": "Point", "coordinates": [128.364813, 36.987924]}}, {"type": "Feature", "properties": {"fid": 6666, "ID": 12950, "Name": "Gammul-myeon, Chungbuk, South Korea (\uac10\ubb3c\uba74 \ucda9\ubd81)", "Lat": 36.166203, "Lon": 127.875173, "AQI": 155.0, "Last_Updated": "2026-03-10T01:00:00+09:00"}, "geometry": {"type": "Point", "coordinates": [127.875173, 36.166203]}}, {"type": "Feature", "properties": {"fid": 6644, "ID": 10476, "Name": "Yeongdong-eup, Chungbuk, South Korea (\uc601\ub3d9\uc74d \ucda9\ubd81)", "Lat": 36.172773, "Lon": 127.777839, "AQI": 142.0, "Last_Updated": "2026-03-10T01:00:00+09:00"}, "geometry": {"type": "Point", "coordinates": [127.777839, 36.172773]}}, {"type": "Feature", "properties": {"fid": 6715, "ID": 9547, "Name": "Nonsansi Nonsan, Chungnam, South Korea (\ub17c\uc0b0 \ucda9\ub0a8)", "Lat": 36.199272, "Lon": 127.086981, "AQI": 85.0, "Last_Updated": "2026-03-10T01:00:00+09:00"}, "geometry": {"type": "Point", "coordinates": [127.086981, 36.199272]}}, {"type": "Feature", "properties": {"fid": 6795, "ID": 14021, "Name": "Hwanggan-myeon, Chungbuk, South Korea (\ud669\uac04\uba74 \ucda9\ubd81)", "Lat": 36.229445, "Lon": 127.913258, "AQI": 151.0, "Last_Updated": "2026-03-10T01:00:00+09:00"}, "geometry": {"type": "Point", "coordinates": [127.913258, 36.229445]}}, {"type": "Feature", "properties": {"fid": 6835, "ID": 10475, "Name": "Eomsa-myeon, Chungnam, South Korea (\uc5c4\uc0ac\uba74 \ucda9\ub0a8)", "Lat": 36.286987, "Lon": 127.237919, "AQI": 163.0, "Last_Updated": "2026-03-10T00:00:00+09:00"}, "geometry": {"type": "Point", "coordinates": [127.237919, 36.286987]}}, {"type": "Feature", "properties": {"fid": 6851, "ID": 11352, "Name": "Daeseong-dong, Daejeon, South Korea (\ub300\uc131\ub3d9 \ub300\uc804)", "Lat": 36.3018429, "Lon": 127.4602048, "AQI": 144.0, "Last_Updated": "2026-03-10T01:00:00+09:00"}, "geometry": {"type": "Point", "coordinates": [127.460205, 36.301843]}}, {"type": "Feature", "properties": {"fid": 6833, "ID": 1741, "Name": "Jeongnim-dong, Seo-gu, Daejeon, South Korea (\uc815\ub9bc\ub3d9 \ub300\uc804)", "Lat": 36.304667, "Lon": 127.366717, "AQI": 137.0, "Last_Updated": "2026-03-10T01:00:00+09:00"}, "geometry": {"type": "Point", "coordinates": [127.366717, 36.304667]}}, {"type": "Feature", "properties": {"fid": 6811, "ID": 9554, "Name": "Okcheon-gun Okcheon-eup, Chungbuk, South Korea (\uc625\ucc9c\uc74d \ucda9\ubd81)", "Lat": 36.305084, "Lon": 127.570789, "AQI": 158.0, "Last_Updated": "2026-03-10T01:00:00+09:00"}, "geometry": {"type": "Point", "coordinates": [127.570789, 36.305084]}}, {"type": "Feature", "properties": {"fid": 6819, "ID": 12968, "Name": "Tancheon-myeon, Chungnam, South Korea (\ud0c4\ucc9c\uba74 \ucda9\ub0a8)", "Lat": 36.3086, "Lon": 127.06721, "AQI": 151.0, "Last_Updated": "2026-03-10T01:00:00+09:00"}, "geometry": {"type": "Point", "coordinates": [127.06721, 36.3086]}}, {"type": "Feature", "properties": {"fid": 6825, "ID": 1743, "Name": "Munchang-dong, Jung-gu, Daejeon, South Korea (\ubb38\ucc3d\ub3d9 \ub300\uc804)", "Lat": 36.316111, "Lon": 127.437778, "AQI": 155.0, "Last_Updated": "2026-03-10T01:00:00+09:00"}, "geometry": {"type": "Point", "coordinates": [127.437778, 36.316111]}},